{"version": 0.6, "generator": "Overpass API 0.7.62.1 084b4234", "osm3s": {"timestamp_osm_base": "2024-10-10T14:05:06Z", "copyright": "The data included in this document is from www.openstreetmap.org. The data is made available under ODbL."}, "elements": [{"type": "node", "id": 333786044, "lat": 39.9408584, "lon": -75.1589281, "tags": {"amenity": "restaurant", "created_by": "Potlatch 0.10f", "name": "Sam's Morning Glory", "source": "knowledge", "wheelchair": "limited"}}, {"type": "node", "id": 343293806, "lat": 39.9607305, "lon": -75.1594566, "tags": {"addr:city": "Philadelphia", "addr:housenumber": "501", "addr:postcode": "19123", "addr:state": "PA", "addr:street": "North 13th Street", "amenity": "pub", "brewery": "yes", "name": "Prohibition Taproom", "opening_hours": "Mo-Su 11:00-02:00", "source": "survey"}}, {"type": "node", "id": 357303425, "lat": 39.9606683, "lon": -75.1471214, "tags": {"addr:city": "Philadelphia", "addr:housenumber": "500", "addr:postcode": "19123", "addr:state": "PA", "addr:street": "Spring Garden Street", "amenity": "bar", "brewery": "yes", "craft": "brewery", "microbrewery": "yes", "name": "Yards Brewing Company", "operator": "Yards Brewing Company", "restaurant": "yes", "website": "https://yardsbrewing.com/", "wikidata": "Q16903914", "wikipedia": "en:Yards Brewing Company"}}, {"type": "node", "id": 534031535, "lat": 40.0079018, "lon": -75.2108481}, {"type": "node", "id": 534031536, "lat": 40.007741, "lon": -75.211214}, {"type": "node", "id": 534031537, "lat": 40.007942, "lon": -75.2113724}, {"type": "node", "id": 534031538, "lat": 40.0081093, "lon": -75.2110145}, {"type": "node", "id": 566683522, "lat": 39.962054, "lon": -75.1575464, "tags": {"addr:city": "Philadelphia", "addr:housenumber": "1139", "addr:postcode": "19123", "addr:street": "Spring Garden Street", "amenity": "restaurant", "check_date": "2023-10-11", "cuisine": "pizza", "name": "Spring Garden Pizza & Restaurant", "opening_hours": "Mo-Fr 08:00-20:00; Sa 08:00-17:00; Su off", "phone": "+1 215-765-7665", "website": "https://www.springgardenpizza.com"}}, {"type": "node", "id": 596230881, "lat": 40.0549171, "lon": -75.1868248, "tags": {"amenity": "restaurant"}}, {"type": "node", "id": 596245658, "lat": 40.0591996, "lon": -75.1903546, "tags": {"addr:housenumber": "7136", "addr:street": "Germantown Avenue", "amenity": "restaurant", "craft": "brewery", "microbrewery": "yes", "name": "Earth Bread & Brewery"}}, {"type": "node", "id": 596245661, "lat": 40.0596137, "lon": -75.1907265, "tags": {"addr:housenumber": "7152", "addr:street": "Germantown Avenue", "amenity": "restaurant", "cuisine": "american", "name": "Cresheim Valley Grain Exchange", "outdoor_seating": "yes"}}, {"type": "node", "id": 596257472, "lat": 40.0597372, "lon": -75.1908198, "tags": {"amenity": "pub", "brand": "McMenamins", "brand:wikidata": "Q6802345", "cuisine": "american", "name": "McMenamin's Tavern"}}, {"type": "node", "id": 596261287, "lat": 40.0598773, "lon": -75.1906247, "tags": {"addr:housenumber": "7157", "addr:street": "Germantown Avenue", "amenity": "restaurant", "name": "Mi Puebla RESTAURANT & Bakery"}}, {"type": "node", "id": 596261289, "lat": 40.059649, "lon": -75.1904181, "tags": {"addr:housenumber": "7155", "addr:street": "Germantown Avenue", "amenity": "restaurant", "name": "Golden Crust Pizza and Pasta House"}}, {"type": "node", "id": 596262778, "lat": 40.0592571, "lon": -75.1900595, "tags": {"addr:housenumber": "7131", "addr:street": "Germantown Avenue", "amenity": "restaurant", "name": "Umbria"}}, {"type": "node", "id": 596262781, "lat": 40.0593839, "lon": -75.1901909, "tags": {"addr:housenumber": "7135", "addr:street": "Germantown Avenue", "amenity": "restaurant", "name": "Chef Ken's Cafe"}}, {"type": "node", "id": 649984278, "lat": 39.945091, "lon": -75.1796802, "tags": {"amenity": "pub", "name": "Grace Tavern"}}, {"type": "node", "id": 651838077, "lat": 39.949089, "lon": -75.1707551, "tags": {"addr:city": "Philadelphia", "addr:housenumber": "227", "addr:postcode": "19103", "addr:state": "PA", "addr:street": "South 18th Street", "amenity": "restaurant", "check_date": "2023-07-21", "contact:facebook": "https://www.facebook.com/ParcRestaurant", "contact:website": "https://parc-restaurant.com/", "cuisine": "french", "email": "parc.info@starr-restaurants.com", "name": "Parc", "opening_hours": "Mo-Th 08:00-22:00; Fr 08:00-23:00; Sa 10:00-23:00; Su 10:00-22:00", "phone": "+1-215-545-2262", "reservation": "yes", "website:menu": "https://parc-restaurant.com/#menus", "wheelchair": "limited"}}, {"type": "node", "id": 655427420, "lat": 39.9557236, "lon": -75.2017166, "tags": {"addr:city": "Philadelphia", "addr:housenumber": "3939", "addr:street": "Chestnut Street", "amenity": "restaurant", "check_date": "2024-07-25", "contact:facebook": "https://www.facebook.com/dimsumhousephilly/", "contact:phone": "+1 215-921-5377", "contact:website": "https://www.dimsum.house", "name": "Dim Sum House by Jane G's - University City"}}, {"type": "node", "id": 667228924, "lat": 40.0540232, "lon": -75.2182869}, {"type": "node", "id": 667228925, "lat": 40.0539005, "lon": -75.2182432}, {"type": "node", "id": 667228926, "lat": 40.0541677, "lon": -75.2183299}, {"type": "node", "id": 667228927, "lat": 40.0540244, "lon": -75.21828}, {"type": "node", "id": 667228929, "lat": 40.0542806, "lon": -75.2182638}, {"type": "node", "id": 667228930, "lat": 40.0542625, "lon": -75.2182292}, {"type": "node", "id": 762512633, "lat": 40.0078494, "lon": -75.1923682, "tags": {"amenity": "restaurant", "check_date": "2024-02-10", "name": "In Riva"}}, {"type": "node", "id": 762949651, "lat": 40.0091033, "lon": -75.1941613, "tags": {"amenity": "restaurant", "check_date": "2024-02-10", "name": "Shan Chuan Restaurant"}}, {"type": "node", "id": 762949758, "lat": 40.0091155, "lon": -75.1935565, "tags": {"amenity": "restaurant", "check_date": "2024-02-10", "name": "Golden Crust Pizza III"}}, {"type": "node", "id": 774311358, "lat": 39.9673728, "lon": -75.1712034}, {"type": "node", "id": 774334229, "lat": 39.9671223, "lon": -75.1703547, "tags": {"amenity": "restaurant", "check_date": "2024-05-18", "internet_access": "no", "name": "Fairmount Pizza", "payment:cash": "yes", "payment:credit_cards": "yes", "payment:debit_cards": "yes"}}, {"type": "node", "id": 796858045, "lat": 40.0675544, "lon": -75.1790625, "tags": {"addr:housenumber": "8129-8131", "addr:street": "Stenton Avenue", "amenity": "pub", "name": "Reuben's Marc"}}, {"type": "node", "id": 823298041, "lat": 39.9644995, "lon": -75.1660156}, {"type": "node", "id": 826274416, "lat": 39.9590376, "lon": -75.1582279}, {"type": "node", "id": 833393980, "lat": 40.0214584, "lon": -75.1248318, "tags": {"amenity": "restaurant", "name": "La Fonda Columbiana"}}, {"type": "node", "id": 943210892, "lat": 40.024904, "lon": -75.2219208, "tags": {"amenity": "pub", "check_date": "2023-07-25", "check_date:opening_hours": "2023-09-26", "name": "Ryan's Pub", "opening_hours:signed": "no", "phone": "+1-215-483-3722"}}, {"type": "node", "id": 1033935437, "lat": 39.9524202, "lon": -75.1755247, "tags": {"addr:housenumber": "2101", "addr:street": "Chestnut Street", "amenity": "bar", "contact:phone": "+1 215-568-3355", "contact:website": "https://mixbarandgrillphilly.com/location/mix-bar-grill", "description": "The bar is open until whenever the rush ends.", "name": "Mix Bar & Grill", "opening_hours": "Mo-We,Su 11:00-22:00; Th-Sa 11:00-23:00", "outdoor_seating": "yes"}}, {"type": "node", "id": 1034412875, "lat": 39.9489302, "lon": -75.1600819, "tags": {"addr:housenumber": "1123", "addr:street": "Walnut Street", "amenity": "restaurant", "check_date": "2023-04-12", "contact:instagram": "https://www.instagram.com/thehayesphl", "contact:phone": "+1 215-982-2192", "contact:website": "https://www.thehayesphl.com", "email": "info@twrg.com", "name": "The Hayes", "opening_hours": "Mo off; Tu 16:00-22:00; We-Th,Su 12:00-22:00; Fr-Sa 12:00-24:00"}}, {"type": "node", "id": 1034424507, "lat": 39.9383834, "lon": -75.1444803, "tags": {"amenity": "restaurant", "cuisine": "greek", "name": "Kanella"}}, {"type": "node", "id": 1034425431, "lat": 39.9462088, "lon": -75.1577445, "tags": {"addr:housenumber": "941", "addr:street": "Spruce Street", "amenity": "pub", "check_date": "2023-04-12", "contact:facebook": "https://www.facebook.com/vargabar", "contact:phone": "+1 215-627-5200", "contact:website": "https://vargabar.com", "name": "Varga", "opening_hours": "Mo-Th 16:00-24:00; Fr 16:00-26:00; Sa 12:00-26:00; Su 12:00-24:00"}}, {"type": "node", "id": 1035941121, "lat": 39.9504604, "lon": -75.169114, "tags": {"amenity": "restaurant", "cuisine": "moroccan", "name": "Argan Moroccan Cuisine"}}, {"type": "node", "id": 1073734567, "lat": 39.9592064, "lon": -75.1501109, "tags": {"amenity": "pub", "name": "JD McGillicuddy's"}}, {"type": "node", "id": 1155729631, "lat": 40.0125748, "lon": -75.1838038, "tags": {"amenity": "restaurant", "cuisine": "pizza", "internet_access": "yes", "name": "Founded Coffee & Pizza", "outdoor_seating": "yes", "website": "https://foundedpizza.business.site/"}}, {"type": "node", "id": 1167079387, "lat": 39.9417025, "lon": -75.1492453, "tags": {"addr:housenumber": "401", "addr:street": "South Street", "amenity": "bar", "check_date": "2023-04-12", "contact:facebook": "https://www.facebook.com/milkboysouthstreet", "contact:phone": "+1 215-925-6455", "contact:website": "https://www.milkboy.tv/southstreet", "name": "MilkBoy South Street", "opening_hours": "Mo-Tu,Su 11:00-24:00; We-Sa 11:00-25:00"}}, {"type": "node", "id": 1167105119, "lat": 39.9507269, "lon": -75.1637185, "tags": {"addr:city": "Philadelphia", "addr:housenumber": "1388", "addr:postcode": "19107", "addr:street": "Chestnut Street", "amenity": "restaurant", "check_date": "2023-10-12", "name": "The Capital Grille", "opening_hours": "Mo-Th 11:30-21:00; Fr 11:30-22:00; Sa 16:00-22:00; Su 16:00-21:00", "phone": "+1 215-545-9588", "website": "https://m.thecapitalgrille.com/locations/pa/philadelphia/philadelphia/8013"}}, {"type": "node", "id": 1190349091, "lat": 39.9639408, "lon": -75.1669365, "tags": {"amenity": "restaurant", "name": "Cafe Lift"}}, {"type": "node", "id": 1204753172, "lat": 39.9279897, "lon": -75.1658709, "tags": {"amenity": "restaurant", "cuisine": "pizza", "name": "Marras Pizza"}}, {"type": "node", "id": 1204759133, "lat": 39.9274511, "lon": -75.1637315, "tags": {"amenity": "restaurant", "name": "Red East Chinese aka \"Fenny's\""}}, {"type": "node", "id": 1204761128, "lat": 39.9268474, "lon": -75.1636296, "tags": {"amenity": "bar", "name": "Vikings High School Club"}}, {"type": "node", "id": 1215190381, "lat": 39.9482157, "lon": -75.2195785, "tags": {"addr:city": "Philadelphia", "addr:housenumber": "4800", "addr:state": "PA", "addr:street": "Baltimore Avenue", "amenity": "restaurant", "check_date": "2023-12-21", "cuisine": "american;coffee_shop", "diet:vegan": "yes", "diet:vegetarian": "yes", "email": "eat@thegoldstandardcafe.com", "fax": "+1 215-727-7793", "internet_access": "wlan", "internet_access:fee": "customers", "name": "The Gold Standard Caf\u00e9", "opening_hours": "Mo-Fr 07:00-21:00; Sa-Su 08:00-21:00", "phone": "+1 215-727-8247", "website": "https://thegoldstandardcafe.com/"}}, {"type": "node", "id": 1223899512, "lat": 39.9140514, "lon": -75.1529301, "tags": {"amenity": "restaurant", "name": "Oregon Diner"}}, {"type": "node", "id": 1357112614, "lat": 40.0542511, "lon": -75.2182374}, {"type": "node", "id": 1357112615, "lat": 40.054253, "lon": -75.2182264}, {"type": "node", "id": 1357112618, "lat": 40.0542755, "lon": -75.2182447}, {"type": "node", "id": 1424271155, "lat": 39.9415203, "lon": -75.1490932, "tags": {"addr:housenumber": "344", "addr:postcode": "19147", "addr:street": "South Street", "amenity": "bar", "name": "Copabanana", "opening_hours": "Mo-Su 11:30-02:00", "phone": "+1 215 9236180", "website": "https://copabanana.com/"}}, {"type": "node", "id": 1463841254, "lat": 39.9485657, "lon": -75.1448374, "tags": {"addr:city": "Philadelphia", "addr:housenumber": "217-219", "addr:postcode": "19106", "addr:state": "PA", "addr:street": "Chestnut Street", "amenity": "restaurant", "cuisine": "spanish;tapas", "name": "Amada", "phone": "+1-215-625-2450", "website": "https://www.amadarestaurant.com/amada-philadelphia/"}}, {"type": "node", "id": 1475230378, "lat": 39.9662701, "lon": -75.1400237, "tags": {"addr:city": "Philadelphia", "addr:housenumber": "1001", "addr:postcode": "19123", "addr:street": "North 2nd Street", "amenity": "bar", "name": "Gunner's Run", "opening_hours": "Mo-Su 11:00-02:00", "phone": "+1 215-923-4600", "website": "http://gunnersrun.com/"}}, {"type": "node", "id": 1475234787, "lat": 39.9368559, "lon": -75.1548054, "tags": {"amenity": "bar", "name": "Royal Tavern"}}, {"type": "node", "id": 1475234971, "lat": 39.9368866, "lon": -75.154784, "tags": {"addr:city": "Philadelphia", "addr:housenumber": "947", "addr:postcode": "19147", "addr:street": "East Passyunk Avenue", "air_conditioning": "yes", "amenity": "bar", "name": "The Dive Bar", "opening_hours": "17:00-02:00", "phone": "+1 215-465-5505", "smoking": "isolated"}}, {"type": "node", "id": 1475239798, "lat": 39.9289112, "lon": -75.1644867, "tags": {"amenity": "restaurant", "cuisine": "mexican", "name": "Cantina Los Caballitos"}}, {"type": "node", "id": 1475267566, "lat": 39.9836852, "lon": -75.1570355, "tags": {"addr:housenumber": "2010", "addr:postcode": "19120", "addr:street": "Broad Street", "amenity": "restaurant", "cuisine": "pizza", "name": "Owl's Nest", "website": "http://www.campusfood.com/restaurant.asp?campusid=118&mlid=262944"}}, {"type": "node", "id": 1479226444, "lat": 39.9389682, "lon": -75.1582686, "tags": {"addr:city": "Philadelphia", "addr:housenumber": "910", "addr:postcode": "19147", "addr:state": "PA", "addr:street": "Christian Street", "amenity": "restaurant", "description": "Sit-down BYOB restaurant serving breakfast, lunch, and dinner. There are substantial vegetarian options and limited vegan options.", "diet:vegan": "yes", "diet:vegetarian": "yes", "name": "Sabrina's Cafe", "opening_hours": "Mo-Fr 08:00-17:00", "phone": "+1 215-574-1599", "website": "https://www.sabrinascafe.com/"}}, {"type": "node", "id": 1479227496, "lat": 39.9389166, "lon": -75.1579425, "tags": {"amenity": "restaurant", "cuisine": "pizza", "name": "Lorenzo's Pizza", "website": "lorenzospizza.net"}}, {"type": "node", "id": 1479237282, "lat": 39.9384973, "lon": -75.1562664, "tags": {"amenity": "restaurant", "cuisine": "mexican", "name": "Paloma", "website": "palomafinedining.com"}}, {"type": "node", "id": 1479729148, "lat": 40.084739, "lon": -74.970468, "tags": {"amenity": "restaurant", "name": "The Works"}}, {"type": "node", "id": 1479729155, "lat": 40.0859333, "lon": -74.9711922, "tags": {"amenity": "restaurant", "name": "Joe Santucci's"}}, {"type": "node", "id": 1479729158, "lat": 40.0798219, "lon": -74.9937496, "tags": {"amenity": "restaurant", "name": "Bei Jing"}}, {"type": "node", "id": 1479729161, "lat": 40.0644731, "lon": -74.9869046, "tags": {"addr:housenumber": "3818", "addr:street": "Morrell Avenue", "amenity": "restaurant", "check_date": "2024-06-21", "name": "George's Wings", "opening_hours": "Mo-Th 11:00-22:00; Fr-Sa 11:00-23:00; Su 12:00-22:00", "phone": "+1 215-637-0555", "website": "https://www.georgeswings.com/"}}, {"type": "node", "id": 1482487571, "lat": 39.9439545, "lon": -75.1673114, "tags": {"addr:city": "Philadelphia", "addr:housenumber": "534", "addr:postcode": "19146", "addr:state": "PA", "addr:street": "South 15th Street", "amenity": "restaurant", "bar": "no", "cuisine": "thai", "designation": "South 15th Street", "name": "Sawatdee", "opening_hours": "Su-Th 17:00-22:00; Fr,Sa 17:00-23:00", "outdoor_seating": "yes", "phone": "+1 215-790-1299", "takeaway": "yes", "website": "https://www.phillysawatdee.com"}}, {"type": "node", "id": 1482492640, "lat": 39.9433047, "lon": -75.1638906}, {"type": "node", "id": 1482514637, "lat": 39.9436423, "lon": -75.1666388, "tags": {"addr:city": "Philadelphia", "addr:housename": "Jamacian Jerk Hut", "addr:housenumber": "1436", "addr:postcode": "19146", "addr:street": "South Street", "amenity": "restaurant", "contact:phone": "+1 215-545-8644", "contact:website": "https://orderjamaicanjerkhut.com", "cuisine": "international", "name": "Jamaican Jerk Hut", "opening_hours": "Mo off; Tu-Th 11:30-19:00; Fr-Sa 11:30-17:00; Su 12:00-19:00", "wheelchair": "limited"}}, {"type": "node", "id": 1482514639, "lat": 39.9455278, "lon": -75.1654742, "tags": {"addr:housenumber": "1410", "addr:postcode": "19102", "addr:street": "Pine Street", "amenity": "restaurant", "cuisine": "italian", "name": "Girasole"}}, {"type": "node", "id": 1488543757, "lat": 39.8899828, "lon": -75.1777096}, {"type": "node", "id": 1488543776, "lat": 39.8899956, "lon": -75.1775572}, {"type": "node", "id": 1488543783, "lat": 39.8901029, "lon": -75.1775725}, {"type": "node", "id": 1488543809, "lat": 39.8900901, "lon": -75.177725}, {"type": "node", "id": 1489580845, "lat": 39.9789247, "lon": -75.1588816, "tags": {"addr:housenumber": "1431", "addr:postcode": "19121", "addr:street": "Cecil B. Moore Avenue", "amenity": "restaurant", "cuisine": "american", "name": "Draught Horse"}}, {"type": "node", "id": 1489690688, "lat": 39.9484315, "lon": -75.1621587, "tags": {"addr:housename": "13th Street Pizza", "addr:housenumber": "209", "addr:postcode": "19107", "addr:street": "South 13th Street", "amenity": "restaurant", "check_date": "2023-10-12", "cuisine": "pizza", "name": "Cappelli", "phone": "+1 215-309-5490"}}, {"type": "node", "id": 1489697259, "lat": 39.950078, "lon": -75.161799, "tags": {"addr:housename": "Zio Pizza", "addr:housenumber": "111", "addr:postcode": "19107", "addr:street": "South 13th Street", "amenity": "restaurant", "check_date": "2023-10-12", "contact:facebook": "https://www.facebook.com/ziosbrickovenpizza", "cuisine": "pizza", "name": "Zio's Brickoven Pizzeria", "opening_hours": "Mo-Th 10:00-21:00; Fr-Sa 11:00-22:00; Su 11:00-21:00", "phone": "+1 215-627-1615; +1 215-627-5018", "source": "Good Maps", "website": "https://www.ziosbrickoven.com"}}, {"type": "node", "id": 1509757250, "lat": 39.9398247, "lon": -75.1575625, "tags": {"addr:housenumber": "767", "addr:postcode": "19147", "addr:street": "South 9th Street", "amenity": "pub", "name": "The Wishing Well", "website": "http://www.wishingwellphilly.com/"}}, {"type": "node", "id": 1518109393, "lat": 39.9529963, "lon": -75.1592391, "tags": {"amenity": "bar", "name": "Fieldhouse Philadelphia", "toilets:wheelchair": "yes", "wheelchair": "yes"}}, {"type": "node", "id": 1606846530, "lat": 39.9420101, "lon": -75.1528974, "tags": {"addr:city": "Philadelphia", "addr:housenumber": "618", "addr:state": "PA", "addr:street": "South Street", "amenity": "restaurant", "cuisine": "chinese", "diet:vegan": "yes", "name": "Golden Empress Garden", "phone": "+1-215-627-7666", "website": "https://www.goldenempressgarden.com/"}}, {"type": "node", "id": 1606862187, "lat": 39.9410646, "lon": -75.1455347, "tags": {"addr:housenumber": "150", "addr:street": "South Street", "amenity": "pub", "check_date": "2023-04-12", "contact:facebook": "https://www.facebook.com/PaddyWhacks", "contact:phone": "+1 215-464-7544", "contact:website": "http://paddywhackspub.com/2nd/homepage.php", "name": "Paddy Whacks", "opening_hours": "11:00-26:00"}}, {"type": "node", "id": 1687412069, "lat": 39.9704766, "lon": -75.1457629}, {"type": "node", "id": 1687439286, "lat": 39.9787607, "lon": -75.1591309, "tags": {"addr:housename": "Owl Breakfast and Lunch", "addr:housenumber": "1424", "addr:postcode": "19121", "addr:street": "Cecil B. Moore", "amenity": "restaurant", "name": "Owl Breakfast and Lunch", "opening_hours": "Mo-Fr 06:00-14:30; Sa 06:00-15:00; Su 07:00-15:00"}}, {"type": "node", "id": 1687518567, "lat": 39.9782511, "lon": -75.1582425, "tags": {"amenity": "restaurant", "name": "Koja Grille"}}, {"type": "node", "id": 1693849091, "lat": 39.9838477, "lon": -75.1569947, "tags": {"addr:street": "Broad street", "amenity": "restaurant", "cuisine": "sandwich", "name": "Paesanos philly"}}, {"type": "node", "id": 1696263020, "lat": 40.0258143, "lon": -75.2241875, "tags": {"addr:housename": "Jake's and Cooper's Restaurant", "addr:housenumber": "4365", "addr:street": "Main Street", "amenity": "restaurant", "check_date": "2023-07-28", "check_date:opening_hours": "2023-09-26", "diet:vegan": "no", "diet:vegetarian": "yes", "name": "Jake's and Cooper's Wine Bar and Store", "opening_hours:signed": "no"}}, {"type": "node", "id": 1696268602, "lat": 40.0245358, "lon": -75.2211217, "tags": {"amenity": "bar", "check_date": "2023-07-28", "check_date:opening_hours": "2023-09-26", "name": "Bayou Bar and Grill", "opening_hours:signed": "no"}}, {"type": "node", "id": 1696269837, "lat": 40.0247414, "lon": -75.2212666, "tags": {"addr:housename": "Couch Tomato Cafe", "addr:housenumber": "102", "addr:street": "Rector Street", "amenity": "restaurant", "name": "Couch Tomato Cafe"}}, {"type": "node", "id": 1697912581, "lat": 39.967178, "lon": -75.1713, "tags": {"amenity": "restaurant", "name": "Fare", "opening_hours": "Mo-Su 16:00-22:00"}}, {"type": "node", "id": 1698067762, "lat": 39.9668301, "lon": -75.1608231, "tags": {"amenity": "restaurant", "name": "Petes Pizza"}}, {"type": "node", "id": 1700198702, "lat": 39.9537387, "lon": -75.2028345, "tags": {"addr:city": "Philadelphia", "amenity": "bar", "name": "Smokey Joe's"}}, {"type": "node", "id": 1702834404, "lat": 39.9564002, "lon": -75.1541726, "tags": {"addr:city": "Philadelphia", "addr:housenumber": "238", "addr:postcode": "19107", "addr:street": "North 9th Street", "alt_name": "SangKee", "amenity": "restaurant", "cuisine": "chinese", "name": "Sang Kee Peking Duck House", "opening_hours": "Mo-Su 10:00-22:45; Fr,Sa 10:00-23:45", "short_name": "Sang Kee", "source": "Official website, http://www.phillychinatown.com/sangkee.htm", "website": "https://www.sangkeechinatown.com/"}}, {"type": "node", "id": 1702834414, "lat": 39.9554721, "lon": -75.1559832, "tags": {"addr:city": "Philadelphia", "addr:housenumber": "1001", "addr:postcode": "19107", "addr:street": "Race Street", "amenity": "restaurant", "check_date": "2023-10-11", "cuisine": "chinese", "name": "David's Mai Lai Wah", "opening_hours": "16:00-27:00", "phone": "+1 215-627-2610", "website": "https://www.davidsmailaiwah.com"}}, {"type": "node", "id": 1702834419, "lat": 39.955961, "lon": -75.1572716, "tags": {"addr:city": "Philadelphia", "addr:housenumber": "211", "addr:postcode": "19107", "addr:street": "North 11th Street", "amenity": "restaurant", "cuisine": "japanese", "name": "Yakitori Boy", "website": "https://www.yakitoriboy.com/"}}, {"type": "node", "id": 1702834425, "lat": 39.9554203, "lon": -75.1569989, "tags": {"addr:city": "Philadelphia", "addr:housenumber": "1026", "addr:postcode": "19107", "addr:street": "Race St", "amenity": "restaurant", "cuisine": "chinese", "name": "Joy Tsin Lau", "name:zh": "\u9189\u4ed9\u6a13", "source": "http://www.yelp.com/biz/joy-tsin-lau-philadelphia-2"}}, {"type": "node", "id": 1706534939, "lat": 39.9582468, "lon": -75.1926532, "tags": {"addr:city": "Philadelphia", "addr:housenumber": "3505", "addr:postcode": "19104", "addr:state": "PA", "addr:street": "Lancaster Avenue", "air_conditioning": "yes", "amenity": "restaurant", "check_date": "2024-07-26", "contact:phone": "+1 215-222-7777", "cuisine": "pizza", "name": "Savas Brick Oven Pizza", "opening_hours": "Mo-Su 10:00-26:00", "outdoor_seating": "yes", "website": "https://savaspizza.com/", "website:menu": "https://savaspizza.com/philadelphia-university-city-savas-brick-oven-pizza-food-menu"}}, {"type": "node", "id": 1707863138, "lat": 39.9367193, "lon": -75.1736882}, {"type": "node", "id": 1712004131, "lat": 40.0365975, "lon": -75.0318147, "tags": {"addr:housename": "Shef's Pizza", "addr:housenumber": "4330", "addr:street": "Sheffield Avenue", "amenity": "restaurant", "cuisine": "italian", "name": "Shef's Pizza"}}, {"type": "node", "id": 1712013013, "lat": 40.0362437, "lon": -75.0405394}, {"type": "node", "id": 1712020986, "lat": 40.0381691, "lon": -75.0375693, "tags": {"addr:housename": "Leneghan's Pub", "addr:housenumber": "7412", "addr:street": "Frankford Avenue", "amenity": "pub", "name": "Leneghans Pub"}}, {"type": "node", "id": 1712028161, "lat": 39.9641476, "lon": -75.1406014}, {"type": "node", "id": 1712034405, "lat": 39.9418748, "lon": -75.1518877, "tags": {"addr:city": "Philadelphia", "addr:housenumber": "530", "addr:postcode": "19147", "addr:state": "PA", "addr:street": "South Street", "amenity": "pub", "check_date": "2023-04-12", "contact:facebook": "https://www.facebook.com/tattooedmomphilly", "contact:phone": "+1 215-238-9880", "contact:website": "https://www.tattoedmomphilly.com", "name": "Tattooed Mom", "opening_hours": "Mo-Th 16:00-23:00; Fr-Sa 12:00-26:00; Su 12:00-23:00"}}, {"type": "node", "id": 1712035844, "lat": 39.9410621, "lon": -75.1475854, "tags": {"addr:city": "Philadelphia", "addr:housenumber": "611", "addr:postcode": "19147", "addr:state": "PA", "addr:street": "South 3rd Street", "amenity": "pub", "check_date": "2023-10-17", "name": "Oneal's Pub", "opening_hours": "Mo-Fr 11:00-26:00, Sa-Su 09:00-26:00", "phone": "+1 215-574-9495", "website": "https://onealspub.com/"}}, {"type": "node", "id": 1712044411, "lat": 39.9737271, "lon": -75.1255764, "tags": {"addr:housename": "the happy tap", "addr:street": "thompson and susquahana", "amenity": "pub", "designation": "local dive", "name": "Les n Doreen's Happy Tap"}}, {"type": "node", "id": 1712067122, "lat": 39.9698591, "lon": -75.1435298, "tags": {"addr:housenumber": "412", "addr:postcode": "19123", "addr:street": "West Girard Ave", "amenity": "bar", "name": "The Fire"}}, {"type": "node", "id": 1712076764, "lat": 40.0056758, "lon": -75.1074603, "tags": {"amenity": "pub"}}, {"type": "node", "id": 1712077076, "lat": 40.0057179, "lon": -75.1074442, "tags": {"amenity": "bar"}}, {"type": "node", "id": 1718667835, "lat": 40.068083, "lon": -75.0687339, "tags": {"amenity": "bar", "name": "Red Rooster"}}, {"type": "node", "id": 1734213261, "lat": 39.9617447, "lon": -75.1413365, "tags": {"addr:city": "Philadelphia", "addr:housenumber": "630", "addr:postcode": "19123", "addr:street": "North 2nd Street", "amenity": "restaurant", "diet:vegan": "yes", "diet:vegetarian": "only", "internet_access": "yes", "name": "Joy Cafe", "opening_hours": "Mo-Sa 10:00-19:00; Su 10:00-17:00", "outdoor_seating": "no", "phone": "+1 215-922-1003", "website": "https://myjoycafe.com/"}}, {"type": "node", "id": 1746173358, "lat": 39.9768314, "lon": -75.1190768}, {"type": "node", "id": 1749986183, "lat": 39.925755, "lon": -75.1726592}, {"type": "node", "id": 1749989684, "lat": 39.9279585, "lon": -75.1620353, "tags": {"amenity": "bar", "name": "Watkins Drinkery"}}, {"type": "node", "id": 1769695281, "lat": 39.9915879, "lon": -75.1338021, "tags": {"amenity": "restaurant", "name": "Chinese Palace"}}, {"type": "node", "id": 1769695287, "lat": 39.9916204, "lon": -75.1341668, "tags": {"amenity": "restaurant", "name": "Isla Nena"}}, {"type": "node", "id": 1769695288, "lat": 39.9912147, "lon": -75.1317014, "tags": {"amenity": "restaurant", "name": "El Principe"}}, {"type": "node", "id": 1769695289, "lat": 39.9912147, "lon": -75.1346411, "tags": {"amenity": "restaurant", "name": "El Rincon Latino"}}, {"type": "node", "id": 1815002332, "lat": 39.9427673, "lon": -75.1410658}, {"type": "node", "id": 1815002336, "lat": 39.9427071, "lon": -75.1409712}, {"type": "node", "id": 1815002337, "lat": 39.9421596, "lon": -75.1409491}, {"type": "node", "id": 1815002338, "lat": 39.9418614, "lon": -75.1410624}, {"type": "node", "id": 1815002346, "lat": 39.9418948, "lon": -75.1410778}, {"type": "node", "id": 1815002355, "lat": 39.9418645, "lon": -75.1409793}, {"type": "node", "id": 1815002356, "lat": 39.941848, "lon": -75.1409927}, {"type": "node", "id": 1815002358, "lat": 39.9418419, "lon": -75.1410195}, {"type": "node", "id": 1815002361, "lat": 39.9427097, "lon": -75.1410845}, {"type": "node", "id": 1815002362, "lat": 39.9418969, "lon": -75.1409665}, {"type": "node", "id": 1815002366, "lat": 39.941845, "lon": -75.141045}, {"type": "node", "id": 1815002372, "lat": 39.9419869, "lon": -75.1409558}, {"type": "node", "id": 1815002381, "lat": 39.942575, "lon": -75.1409551}, {"type": "node", "id": 1815002389, "lat": 39.9421586, "lon": -75.1411067}, {"type": "node", "id": 1815002393, "lat": 39.9428634, "lon": -75.1410269}, {"type": "node", "id": 1815002394, "lat": 39.9427657, "lon": -75.1409907}, {"type": "node", "id": 1815002395, "lat": 39.9425773, "lon": -75.1411025}, {"type": "node", "id": 1815002396, "lat": 39.9424177, "lon": -75.1409484}, {"type": "node", "id": 1815002399, "lat": 39.9419848, "lon": -75.1410939}, {"type": "node", "id": 1815002403, "lat": 39.9424182, "lon": -75.1411087}, {"type": "node", "id": 1815002404, "lat": 39.9424665, "lon": -75.1411068, "tags": {"access": "customers", "entrance": "main", "level": "0"}}, {"type": "node", "id": 1847081953, "lat": 39.9673327, "lon": -75.1658519, "tags": {"amenity": "restaurant", "cuisine": "sandwich", "name": "Rybread"}}, {"type": "node", "id": 1847081973, "lat": 39.9658568, "lon": -75.1833882, "tags": {"addr:housenumber": "640", "addr:postcode": "19130", "addr:street": "Waterworks Drive", "amenity": "restaurant", "cuisine": "american", "description": "Event venue.", "designation": "Anna McPeak", "name": "Cescaphe at the Water Works", "website": "https://weddings.cescaphe.com/venue/water-works/"}}, {"type": "node", "id": 1889907923, "lat": 39.9429467, "lon": -75.1571176, "tags": {"addr:housenumber": "901", "addr:postcode": "19147", "addr:street": "South St", "amenity": "restaurant", "cuisine": "pizza", "name": "Little Italy Pizza", "website": "http://www.littleitalyone.com"}}, {"type": "node", "id": 1937637141, "lat": 39.9557024, "lon": -75.1680332, "tags": {"addr:city": "Philadelphia", "addr:housenumber": "1700", "addr:postcode": "19103", "addr:street": "Benjamin Franklin Parkway", "amenity": "pub", "check_date": "2023-10-10", "contact:facebook": "https://www.facebook.com/ConMurphysPhilly", "name": "Con Murphy's", "opening_hours": "Mo-We 11:00-24:00, Th 09:00-24:00, Fr-Sa 09:00-24:00, Su off", "phone": "+1 267-687-1128", "source": "survey", "website": "https://conmurphyspub.com"}}, {"type": "node", "id": 1940775046, "lat": 39.9473988, "lon": -75.1791961, "tags": {"addr:city": "Philadelphia", "addr:housenumber": "2227", "addr:postcode": "19103", "addr:state": "PA", "addr:street": "Pine Street", "amenity": "restaurant", "cuisine": "brunch;comfort_food", "email": "info@cotolettafs.com", "name": "Cotoletta", "opening_hours": "Mo-Th 17:00-22:00; Fr 17:00-23:00; Sa 10:00-14:30,17:00-23:00; Su 10:00-14:30,17:00-22:00", "phone": "+1-267-519-9697", "website": "https://www.cotolettafs.com/"}}, {"type": "node", "id": 1940776523, "lat": 39.9512797, "lon": -75.1741414, "tags": {"addr:city": "Philadelphia", "addr:housenumber": "2012", "addr:postcode": "19103", "addr:street": "Sansom Street", "amenity": "restaurant", "check_date": "2023-10-15", "cuisine": "italian", "name": "Melograno", "opening_hours": "Mo off; Tu-Th,Su 17:00-21:30; Fr-Sa 17:00-22:00", "phone": "+1 215-875-8116", "website": "https://www.melogranophilly.com"}}, {"type": "node", "id": 1980171513, "lat": 39.9417727, "lon": -75.1794507, "tags": {"amenity": "bar", "indoor_seating": "yes", "name": "SideCar Bar", "opening_hours": "Th-Tu 16:00-23:00", "outdoor_seating": "yes", "website": "https://www.thesidecarbar.com/"}}, {"type": "node", "id": 2002155413, "lat": 40.0445985, "lon": -75.0174917}, {"type": "node", "id": 2002970598, "lat": 39.9219571, "lon": -75.1500347, "tags": {"amenity": "pub", "name": "Mcdaniels"}}, {"type": "node", "id": 2002970604, "lat": 39.9219221, "lon": -75.149729, "tags": {"amenity": "pub", "name": "McKennas"}}, {"type": "node", "id": 2002973851, "lat": 39.9493006, "lon": -75.1525508, "tags": {"addr:city": "Philadelphia", "addr:housenumber": "700", "addr:postcode": "19016", "addr:street": "Chestnut", "amenity": "restaurant", "cuisine": "american", "designation": "Anna McPeak", "name": "Jones Restaurant", "website": "https://jones-restaurant.com/"}}, {"type": "node", "id": 2002981006, "lat": 39.9220168, "lon": -75.1504022, "tags": {"amenity": "restaurant", "cuisine": "chinese", "name": "Happy Dragon"}}, {"type": "node", "id": 2002997662, "lat": 39.9667589, "lon": -75.1730776}, {"type": "node", "id": 2003055921, "lat": 40.0351586, "lon": -75.2179661, "tags": {"addr:housename": "Barry's Steaks", "addr:housenumber": "471", "addr:postcode": "19128", "addr:street": "Leverington Avenue", "amenity": "restaurant", "check_date": "2023-07-30", "check_date:opening_hours": "2023-09-29", "cuisine": "sandwich", "name": "Barry's Steaks", "opening_hours:signed": "no", "source": "local knowledge", "website": "https://barrys-steaks.com/"}}, {"type": "node", "id": 2003090914, "lat": 40.0091806, "lon": -75.1564062, "tags": {"amenity": "bar", "name": "B Bar"}}, {"type": "node", "id": 2012635213, "lat": 39.9414059, "lon": -75.1491095, "tags": {"addr:housenumber": "603", "addr:street": "South 4th Street", "amenity": "restaurant", "cuisine": "middle_eastern", "name": "Alayan's Restaurant"}}, {"type": "node", "id": 2012650624, "lat": 39.98467, "lon": -75.1572288, "tags": {"addr:housename": "Temple Star", "addr:housenumber": "1412 West Diamond Street", "addr:street": "Diamond St.", "amenity": "restaurant", "cuisine": "asian", "name": "Temple Star", "opening_hours": "Su-Th 13:00-01:00, Fr,Sa 13:00-02:00"}}, {"type": "node", "id": 2012656012, "lat": 39.9791463, "lon": -75.1605142, "tags": {"addr:housenumber": "1527", "addr:street": "Cecil B. Moore Avenue", "amenity": "pub", "name": "Pub Webb"}}, {"type": "node", "id": 2012656013, "lat": 39.978803, "lon": -75.1594789, "tags": {"addr:housenumber": "1434", "addr:street": "Cecil B. Moore Avenue", "amenity": "restaurant", "cuisine": "pizza", "name": "City View Pizza"}}, {"type": "node", "id": 2012656016, "lat": 39.9791175, "lon": -75.1604445, "tags": {"addr:housenumber": "1521", "addr:street": "Cecil B. Moore", "amenity": "restaurant", "cuisine": "chinese", "name": "Maple Star"}}, {"type": "node", "id": 2012712693, "lat": 40.0363652, "lon": -75.1302908, "tags": {"amenity": "pub", "name": "JD's Lounge"}}, {"type": "node", "id": 2014438114, "lat": 40.0738474, "lon": -75.1669017, "tags": {"amenity": "restaurant", "cuisine": "chinese", "name": "Yummy Yummy"}}, {"type": "node", "id": 2014439202, "lat": 40.0740157, "lon": -75.1667247, "tags": {"amenity": "restaurant", "cuisine": "chinese", "name": "Silver Star"}}, {"type": "node", "id": 2014886333, "lat": 39.971539, "lon": -75.160859}, {"type": "node", "id": 2040315443, "lat": 39.944812, "lon": -75.1632105, "tags": {"addr:city": "Philadelphia", "addr:housenumber": "412", "addr:postcode": "19147", "addr:state": "PA", "addr:street": "South 13th Street", "amenity": "restaurant", "bar": "yes", "cuisine": "pizza", "designation": "13th and Waverly street", "name": "Paulie Gee's Soul City", "opening_hours": "Su-Th 11:30-23:00, Fr-Sa 11:30-02:00", "phone": "+1-267-239-5761", "sport": "billiards", "website": "https://pauliegee.com/soul-city/"}}, {"type": "node", "id": 2040424579, "lat": 39.9467368, "lon": -75.163189, "tags": {"addr:housenumber": "1312", "addr:street": "Spruce Street", "amenity": "restaurant", "check_date": "2023-04-11", "contact:phone": "+1 215-732-3478", "cuisine": "italian", "name": "Vetri Cucina", "opening_hours": "17:00+ \"Dinner every day starting at 5PM\"", "website": "https://vetricucina.com"}}, {"type": "node", "id": 2040436590, "lat": 39.964982, "lon": -75.1611073, "tags": {"addr:housenumber": "640", "addr:street": "North Broad Street", "amenity": "restaurant", "cuisine": "italian", "name": "Osteria", "website": "https://www.osteriaphilly.com/"}}, {"type": "node", "id": 2040446963, "lat": 39.940255, "lon": -75.1576476, "tags": {"addr:city": "Philadelphia", "addr:housenumber": "760", "addr:postcode": "19147", "addr:state": "PA", "addr:street": "South 9th Street", "alt_name": "Ralph's Italian Restaurant", "amenity": "restaurant", "cuisine": "italian", "name": "Ralph's", "opening_hours": "Mo-Th 16:00-21:00; Fr 16:00-21:30; Sa 13:00-21:30; Su 13:00-21:00", "phone": "+1-215-627-6011", "website": "https://ralphsrestaurant.com"}}, {"type": "node", "id": 2065987563, "lat": 39.9537514, "lon": -75.1567341, "tags": {"addr:housename": "Banana Leaf", "addr:housenumber": "1009", "addr:postcode": "19107", "addr:street": "Arch Street", "amenity": "restaurant", "cuisine": "asian", "name": "Banana Leaf", "opening_hours": "Mo-Su 11:00-01:00"}}, {"type": "node", "id": 2065987946, "lat": 39.9534483, "lon": -75.1564447, "tags": {"addr:housename": "Pho Cali", "addr:housenumber": "1000", "addr:postcode": "19107", "addr:street": "Arch Street", "amenity": "restaurant", "cuisine": "vietnamese", "name": "Pho Cali", "name:zh": "\u52a0\u5dde\u7c89\u738b", "opening_hours": "Su-Th 10:30-22:30, Fr,Sa 11:00-23:00"}}, {"type": "node", "id": 2065989577, "lat": 39.9532745, "lon": -75.1564662, "tags": {"addr:housename": "Yummy Yummy", "addr:housenumber": "52", "addr:postcode": "19107", "addr:street": "North 10th Street", "amenity": "restaurant", "cuisine": "asian", "name": "Yummy Yummy"}}, {"type": "node", "id": 2065990011, "lat": 39.9539498, "lon": -75.1563195, "tags": {"addr:housename": "Empress Gardens", "addr:housenumber": "108", "addr:postcode": "19107", "addr:street": "North 10th Street", "amenity": "restaurant", "cuisine": "chinese", "name": "Empress Gardens"}}, {"type": "node", "id": 2078082474, "lat": 39.9470731, "lon": -75.1682365, "tags": {"addr:housenumber": "306", "addr:street": "South 16th Street", "amenity": "restaurant", "cuisine": "thai", "name": "Jasmine Rice"}}, {"type": "node", "id": 2078663667, "lat": 39.9533602, "lon": -75.202905, "tags": {"addr:housenumber": "222", "addr:postcode": "19104", "addr:street": "S. 40th St.", "amenity": "restaurant", "cuisine": "greek", "name": "Greek Lady", "opening_hours": "Mo-Su 09:00-23:00", "website": "https://greeklady.com/"}}, {"type": "node", "id": 2078932761, "lat": 40.029488, "lon": -75.206008, "tags": {"amenity": "restaurant", "check_date": "2024-02-10", "cuisine": "sandwich", "delivery": "no", "drive_in": "no", "internet_access": "no", "microbrewery": "no", "name": "Dalessandro's Steaks", "outdoor_seating": "yes", "payment:cash": "yes", "phone": "+1-215-482-5407", "smoking": "no", "takeaway": "yes", "website": "https://dalessandros.com/", "wheelchair": "yes"}}, {"type": "node", "id": 2078935405, "lat": 40.0291845, "lon": -75.2062241, "tags": {"amenity": "restaurant", "check_date": "2024-02-10", "cuisine": "sandwich", "drive_in": "no", "microbrewery": "no", "name": "Chubby's Steaks", "smoking": "no", "takeaway": "yes"}}, {"type": "node", "id": 2099872431, "lat": 39.9498091, "lon": -75.2093762}, {"type": "node", "id": 2099872440, "lat": 39.94966, "lon": -75.2093814}, {"type": "node", "id": 2099872441, "lat": 39.9498198, "lon": -75.2094714}, {"type": "node", "id": 2099872442, "lat": 39.9496706, "lon": -75.2093489}, {"type": "node", "id": 2099872443, "lat": 39.9483079, "lon": -75.2072941, "tags": {"amenity": "pub", "food": "yes", "name": "Millcreek Tavern"}}, {"type": "node", "id": 2100697085, "lat": 39.955089, "lon": -75.2025163, "tags": {"amenity": "restaurant", "cuisine": "indian", "name": "Tandoor India Restaurant"}}, {"type": "node", "id": 2100697093, "lat": 39.9484744, "lon": -75.2171566, "tags": {"amenity": "restaurant", "diet:vegan": "yes", "diet:vegetarian": "yes", "name": "Lee's Deli", "not:brand:wikidata": "Q6512810", "opening_hours": "Mo-Fr 09:00-21:00; Sa 08:00-21:00", "payment:cash": "only", "takeaway": "yes"}}, {"type": "node", "id": 2100740225, "lat": 39.9515808, "lon": -75.2033534}, {"type": "node", "id": 2100740228, "lat": 39.9515673, "lon": -75.2032626, "tags": {"amenity": "restaurant", "name": "Copabanana"}}, {"type": "node", "id": 2100751399, "lat": 39.9541781, "lon": -75.2042721, "tags": {"addr:city": "Philadelphia", "addr:housenumber": "4034", "addr:postcode": "19104", "addr:street": "Walnut Street", "amenity": "restaurant", "cuisine": "fried_chicken", "delivery": "yes", "name": "Wishbone Restaurant", "opening_hours": "Mo-We 08:00-22:00; Th 08:00-24:00; Fr 00:00-03:00,08:00-24:00; Sa 00:00-03:00,11:00-24:00; Su 00:00-03:00,11:00-22:00", "website": "http://wishbonephilly.com/"}}, {"type": "node", "id": 2100751406, "lat": 39.9491571, "lon": -75.2132325, "tags": {"amenity": "restaurant", "cuisine": "haitian", "name": "Atiya Ola's"}}, {"type": "node", "id": 2100751407, "lat": 39.9485567, "lon": -75.2164418, "tags": {"amenity": "restaurant", "cuisine": "mediterranean", "diet:vegan": "yes", "diet:vegetarian": "yes", "name": "Aksum"}}, {"type": "node", "id": 2101632038, "lat": 40.0591835, "lon": -75.189995, "tags": {"addr:housenumber": "7127", "addr:postcode": "19119", "addr:street": "Germantown Avenue", "amenity": "restaurant", "name": "Food For All Market", "opening_hours": "Mo 08:00-16:00; Tu-Fr 08:00-19:00; Sa-Su 09:00-15:00", "phone": "+1 267-297-7122", "website": "http://www.foodforallmarket.com/"}}, {"type": "node", "id": 2102072175, "lat": 39.9530178, "lon": -75.2103374, "tags": {"addr:city": "Philadelphia", "addr:housenumber": "269", "addr:postcode": "19104", "addr:street": "South 44th Street", "amenity": "restaurant", "cuisine": "asian", "email": "tampopo.ben@gmail.com", "name": "Tampopo", "opening_hours": "Tu-Sa 11:30-15:00,16:30-21:30; Su 12:00-20:30", "phone": "+1 215-386-3866", "website": "http://www.tampoporestaurant.com/"}}, {"type": "node", "id": 2102072177, "lat": 39.9530783, "lon": -75.2103297, "tags": {"addr:city": "Philadelphia", "addr:housenumber": "265", "addr:postcode": "19104", "addr:state": "PA", "addr:street": "South 44th Street", "amenity": "restaurant", "cuisine": "dessert;popsicle;pie", "diet:vegan": "yes", "diet:vegetarian": "yes", "email": "info@lilpopshop.com", "name": "Lil' Pop Shop", "opening_hours": "Tu-Th 12:00-21:00; Fr 12:00-22:00; Sa 11:00-22:00; Su 11:00-21:00", "phone": "+1-215-309-5822", "website": "https://www.lilpopshop.com/"}}, {"type": "node", "id": 2102072178, "lat": 39.9528081, "lon": -75.2103812, "tags": {"addr:city": "Philadelphia", "addr:housenumber": "4333", "addr:postcode": "19104", "addr:street": "Spruce Street", "amenity": "pub", "diet:vegan": "yes", "diet:vegetarian": "yes", "food": "yes", "name": "Local 44", "opening_hours": "Mo-Fr 00:00-02:00,11:30-24:00; Sa,Su 00:00-02:00,11:00-24:00", "phone": "+1 215-222-2337", "website": "https://www.local44beerbar.com/"}}, {"type": "node", "id": 2105012245, "lat": 39.948, "lon": -75.222, "tags": {"addr:city": "Philadelphia", "addr:housename": "4914", "addr:postcode": "19143", "addr:state": "PA", "addr:street": "Baltimore Avenue", "amenity": "restaurant", "cuisine": "diner", "diet:vegetarian": "yes", "name": "Cedar Park Cafe", "opening_hours": "Mo-Su 07:00-15:00", "phone": "+1-215-727-1144"}}, {"type": "node", "id": 2105012246, "lat": 39.9488067, "lon": -75.2140828, "tags": {"amenity": "restaurant", "name": "Gojjo Ethiopan Restaurant & Bar"}}, {"type": "node", "id": 2106409275, "lat": 39.9541955, "lon": -75.2021285}, {"type": "node", "id": 2106409276, "lat": 39.9542391, "lon": -75.2021972}, {"type": "node", "id": 2108021992, "lat": 39.9550211, "lon": -75.2118953, "tags": {"addr:city": "Philadelphia", "addr:housenumber": "4500", "addr:postcode": "19139", "addr:state": "PA", "addr:street": "Walnut Street", "amenity": "restaurant", "check_date": "2024-07-26", "cuisine": "middle_eastern", "diet:halal": "only", "diet:vegan": "yes", "diet:vegetarian": "yes", "name": "Saad's Halal Restaurant", "opening_hours": "Mo-Th 11:00-21:00; Fr,Sa 11:00-22:00", "phone": "+1 215-222-7223", "website": "https://www.saadhalal.com/"}}, {"type": "node", "id": 2108022395, "lat": 39.9550873, "lon": -75.2115307, "tags": {"addr:city": "Philadelphia", "addr:housenumber": "4420", "addr:postcode": "19104", "addr:state": "PA", "addr:street": "Walnut Street", "amenity": "restaurant", "check_date": "2024-07-26", "contact:instagram": "https://www.instagram.com/manakeeshcafe", "cuisine": "lebanese", "diet:vegan": "yes", "diet:vegetarian": "yes", "name": "Manakeesh Cafe & Bakery", "opening_hours": "Mo-Th,Su 09:00-21:00; Fr 09:00-13:00,14:00-21:30; Sa 09:00-21:30", "phone": "+1 215-921-2135", "short_name": "Manakeesh", "website": "https://www.manakeeshcafe.com/"}}, {"type": "node", "id": 2114120170, "lat": 39.9575095, "lon": -75.1920267, "tags": {"amenity": "restaurant", "cuisine": "japanese;noodle", "disused:amenity": "fast_food", "name": "Ramen Bar"}}, {"type": "node", "id": 2119806336, "lat": 39.9440535, "lon": -75.2099747, "tags": {"amenity": "restaurant", "cuisine": "mexican", "name": "Guacamole", "opening_hours": "Tu-Fr 11:00-20:00", "takeaway": "yes"}}, {"type": "node", "id": 2122820422, "lat": 39.9540461, "lon": -75.2097262}, {"type": "node", "id": 2125322041, "lat": 39.9552548, "lon": -75.2022203, "tags": {"amenity": "restaurant", "cuisine": "sushi", "name": "Mizu Sushi Bar"}}, {"type": "node", "id": 2129707998, "lat": 39.9484518, "lon": -75.2173617, "tags": {"amenity": "restaurant", "cuisine": "ethiopian", "name": "Dahlak"}}, {"type": "node", "id": 2129707999, "lat": 39.9481827, "lon": -75.2168357, "tags": {"addr:city": "Philadelphia", "addr:country": "US", "addr:housenumber": "816", "addr:postcode": "19143", "addr:state": "PA", "addr:street": "South 47th Street", "amenity": "restaurant", "cuisine": "vietnamese", "diet:vegetarian": "yes", "email": "info@eatatvietnam.com", "name": "Vietnam Cafe", "opening_hours": "Mo-Th 11:30-21:00; Fr 11:30-21:30; Sa 12:00-21:30; Su 12:00-21:00", "phone": "+1-215-729-0260", "website": "https://www.eatatvietnam.com/cafe/"}}, {"type": "node", "id": 2129708001, "lat": 39.9482607, "lon": -75.2168546, "tags": {"addr:city": "Philadelphia", "addr:housenumber": "814", "addr:postcode": "19143", "addr:state": "PA", "addr:street": "South 47th Street", "amenity": "restaurant", "cuisine": "sushi;poke;bubble_tea;salad", "diet:vegan": "yes", "diet:vegetarian": "yes", "name": "Hayashi Sushi", "opening_hours": "Tu-Th 11:00-21:30; Fr-Sa 11:00-22:30; Su 13:00-21:30", "phone": "+1-215-729-6989", "website": "https://hayashisushiphilly.com"}}, {"type": "node", "id": 2132421303, "lat": 39.9491232, "lon": -75.2135379, "tags": {"amenity": "restaurant", "cuisine": "ethiopian", "name": "Queen of Sheeba", "website": "https://www.queenofshebaphiladelphia.com/"}}, {"type": "node", "id": 2152397239, "lat": 39.9483935, "lon": -75.2179265, "tags": {"addr:city": "Philadelphia", "addr:housenumber": "4728", "addr:postcode": "19143", "addr:state": "PA", "addr:street": "Baltimore Avenue", "air_conditioning": "yes", "amenity": "restaurant", "cuisine": "lao;thai", "diet:vegan": "yes", "diet:vegetarian": "yes", "name": "Vientiane Caf\u00e9", "opening_hours": "Mo off; Tu-Sa 16:00-21:00; Su off", "payment:cash": "only", "phone": "+1-215-726-1095", "website": "https://www.vientiane-cafe.com/"}}, {"type": "node", "id": 2153812247, "lat": 39.9523109, "lon": -75.2091691, "tags": {"amenity": "restaurant", "cuisine": "vietnamese", "name": "Pho & Caf\u00e9 Saigon", "opening_hours": "Tu-Su 11:00-21:00", "phone": "+1-215-222-6800"}}, {"type": "node", "id": 2158088061, "lat": 39.9534649, "lon": -75.1960572, "tags": {"addr:city": "Philadelphia", "addr:housenumber": "3611", "addr:postcode": "19104", "addr:state": "PA", "addr:street": "Walnut Street", "amenity": "restaurant", "contact:facebook": "https://www.facebook.com/louielouiephilly/", "name": "Louie Louie", "opening_hours": "Mo-Th 11:00-21:00; Fr 11:00-21:30; Sa 10:00-21:30; Su 10:00-20:00", "phone": "+1 267-805-8585", "website": "https://www.louielouie.restaurant"}}, {"type": "node", "id": 2167213787, "lat": 39.9491646, "lon": -75.2142002}, {"type": "node", "id": 2177564503, "lat": 39.9483487, "lon": -75.221363, "tags": {"amenity": "bar", "name": "The Bar(n)"}}, {"type": "node", "id": 2179184388, "lat": 39.9555387, "lon": -75.2025865, "tags": {"addr:city": "Philadelphia", "addr:housenumber": "4004", "addr:street": "Chestnut Street", "amenity": "restaurant", "check_date": "2024-07-25", "contact:phone": "+1 215-386-1941", "contact:website": "https://newdelhiweb.com/", "cuisine": "indian", "name": "New Delhi Indian Restaurant", "opening_hours": "Mo-Th,Su 11:30-21:00; Fr-Sa 11:30-22:00"}}, {"type": "node", "id": 2179184397, "lat": 39.953129, "lon": -75.2048598, "tags": {"addr:city": "Philadelphia", "addr:street": "Chestnut Street", "amenity": "restaurant", "cuisine": "thai", "name": "Pattaya Thai Cuisine", "opening_hours": "Mo-Fr 11:00-15:00, Su-Th 17:00-21:00, Fr,Sa 17:00-22:00"}}, {"type": "node", "id": 2182345733, "lat": 39.9555252, "lon": -75.2024358, "tags": {"amenity": "restaurant", "name": "Saigon Cuisine"}}, {"type": "node", "id": 2182345747, "lat": 39.9570608, "lon": -75.2024325, "tags": {"amenity": "restaurant", "name": "Hamilton Restaurant"}}, {"type": "node", "id": 2182345789, "lat": 39.9570682, "lon": -75.2024993, "tags": {"amenity": "bar", "name": "Flynn's Bar"}}, {"type": "node", "id": 2186349324, "lat": 39.9509449, "lon": -75.1655084, "tags": {"addr:city": "Philadelphia", "addr:housenumber": "1428-1432", "addr:postcode": "19102", "addr:state": "PA", "addr:street": "Chestnut Street", "amenity": "restaurant", "brand": "Del Frisco's Double Eagle Steakhouse", "brand:wikidata": "Q23461481", "check_date": "2023-10-08", "cuisine": "steak_house", "name": "Del Frisco's Double Eagle Steakhouse", "opening_hours": "Mo-We 17:00-21:00; Th-Fr 17:00-22:00; Sa 16:00-22:00; Su 16:00-21:00", "phone": "+1 215-246-0533", "website": "https://www.delfriscos.com/location/del-friscos-double-eagle-steakhouse-philadelphia-pa"}}, {"type": "node", "id": 2208938376, "lat": 40.0296924, "lon": -75.1003222}, {"type": "node", "id": 2208938478, "lat": 40.0293688, "lon": -75.1003666}, {"type": "node", "id": 2208938528, "lat": 40.0295951, "lon": -75.1001511}, {"type": "node", "id": 2208938545, "lat": 40.0295489, "lon": -75.1006718}, {"type": "node", "id": 2209487685, "lat": 40.0454009, "lon": -75.2324893, "tags": {"addr:city": "Philadelphia", "addr:postcode": "19128", "addr:street": "Domino Lane", "amenity": "restaurant", "check_date": "2023-11-03", "cuisine": "pizza", "delivery": "yes", "name": "Tony Roni's", "outdoor_seating": "no", "smoking": "no", "takeaway": "yes"}}, {"type": "node", "id": 2226025522, "lat": 39.9532308, "lon": -75.1610942, "tags": {"addr:city": "Philadelphia", "addr:housenumber": "1239", "addr:postcode": "19107", "addr:street": "Filbert Street", "amenity": "restaurant", "brand": "Chili's", "brand:wikidata": "Q1072948", "check_date": "2023-10-11", "cuisine": "tex-mex", "name": "Chili's", "official_name": "Chili's Grill & Bar", "opening_hours": "Mo-Th,Su 11:00-22:00; Fr-Sa 11:00-23:00", "phone": "+1 215-569-0850", "website": "https://www.chilis.com/locations/us/pennsylvania/philadelphia/center-city"}}, {"type": "node", "id": 2229875209, "lat": 39.9930664, "lon": -75.0926875}, {"type": "node", "id": 2229875251, "lat": 39.9932439, "lon": -75.0923681}, {"type": "node", "id": 2229875297, "lat": 39.9931912, "lon": -75.0927857}, {"type": "node", "id": 2229875301, "lat": 39.993351, "lon": -75.0924961}, {"type": "node", "id": 2232292471, "lat": 39.9541784, "lon": -75.2117749, "tags": {"addr:city": "Philadelphia", "addr:housenumber": "229", "addr:postcode": "19104", "addr:state": "PA", "addr:street": "South 45th Street", "amenity": "restaurant", "check_date": "2024-07-26", "contact:website": "https://www.abyssiniabarandrestaurant.com/", "cuisine": "ethiopian", "diet:organic": "yes", "diet:vegan": "yes", "diet:vegetarian": "yes", "name": "Abyssinia", "opening_hours": "Su-Sa 10:00-24:00", "phone": "+1-215-387-2424", "source": "Survey, website"}}, {"type": "node", "id": 2235670574, "lat": 39.9530013, "lon": -75.2120144, "tags": {"addr:city": "Philadelphia", "addr:housenumber": "4443", "addr:street": "Spruce Street", "amenity": "restaurant", "cuisine": "mexican", "diet:vegetarian": "yes", "email": "limanture@hotmail.com", "name": "Don Barriga", "opening_hours": "Mo-Th 10:00-22:00; Fr-Sa 10:00-23:00; Su 10:00-21:00", "phone": "+1-267-292-5741", "website": "https://www.donbarriga.com/"}}, {"type": "node", "id": 2238464963, "lat": 39.9543149, "lon": -75.2117656, "tags": {"addr:city": "Philadelphia", "addr:housenumber": "225", "addr:postcode": "19104", "addr:state": "PA", "addr:street": "South 45th Street", "amenity": "restaurant", "check_date": "2024-07-26", "cuisine": "soul_food", "diet:meat": "yes", "name": "Soul Greedy", "opening_hours": "Th-Mo 12:00-21:00", "phone": "+1 267-292-2972", "source": "Website"}}, {"type": "node", "id": 2247020283, "lat": 39.9459994, "lon": -75.1837713, "tags": {"amenity": "restaurant", "name": "Callahan's Grille"}}, {"type": "node", "id": 2247020285, "lat": 39.9488238, "lon": -75.1788911, "tags": {"addr:city": "Philadelphia", "addr:housenumber": "2229", "addr:postcode": "19103", "addr:street": "Spruce Street", "amenity": "restaurant", "check_date": "2023-10-14", "name": "Sally", "opening_hours": "Mo,We-Fr 16:30-22:00; Tu off; Sa-Su 10:30-13:30,16:30-22:00", "phone": "+1 267-773-7178", "website": "https://www.sallyphl.com"}}, {"type": "node", "id": 2253188235, "lat": 39.9510658, "lon": -75.1771765, "tags": {"addr:city": "Philadelphia", "addr:housenumber": "2135", "addr:postcode": "19103", "addr:state": "PA", "addr:street": "Walnut Street", "amenity": "restaurant", "check_date": "2023-10-10", "cuisine": "sushi", "name": "Tsuki Sushi", "opening_hours": "Mo off; Tu-Fr 11:00-22:00; Sa-Su 12:00-22:00", "phone": "+1 215-561-5666", "website": "https://www.tsukiwalnut.com"}}, {"type": "node", "id": 2254889201, "lat": 39.9508621, "lon": -75.1629441, "tags": {"addr:city": "Philadelphia", "addr:housenumber": "1337", "addr:postcode": "19107", "addr:street": "Chestnut Street", "amenity": "restaurant", "check_date": "2023-10-12", "cuisine": "brazilian", "name": "Fogo de Chao", "opening_hours": "Mo-Th 11:30-14:30,17:00-22:00; Fr 11:30-14:30,17:00-22:30; Sa-Su 11:30-21:00", "phone": "+1 215-636-9700", "website": "https://fogodechao.com/location/philadelphia"}}, {"type": "node", "id": 2256040033, "lat": 39.9523838, "lon": -75.1875235, "tags": {"addr:city": "Philadelphia", "addr:housenumber": "3131", "addr:postcode": "19104", "addr:street": "Walnut Street", "amenity": "restaurant", "name": "Tipsy Bistro", "phone": "+1 215-921-8551", "website": "https://www.tipsybistro.com"}}, {"type": "node", "id": 2256040035, "lat": 39.9531112, "lon": -75.1598822, "tags": {"addr:housenumber": "1201", "addr:street": "Filbert Street", "amenity": "restaurant", "check_date": "2023-04-12", "contact:website": "https://maggianos.com/locations/pennsylvania/philadelphia/1201-filbert-st.", "cuisine": "italian", "description": "Carryout: 215-567-2233  Reserve a table: 215-567-2020", "name": "Maggiano's", "opening_hours": "11:30-22:00", "wheelchair": "yes"}}, {"type": "node", "id": 2256040037, "lat": 39.9513778, "lon": -75.1793805, "tags": {"addr:city": "Philadelphia", "addr:housenumber": "151", "addr:postcode": "19103", "addr:state": "PA", "addr:street": "South 24th Street", "amenity": "restaurant", "capacity": "max ~25", "cuisine": "italian", "name": "Sotto", "note": "ele: 24th St. at grade level;ca. 24 ft below Walnut St.", "opening_hours": "Tu-Th 12:00-21:00; Fr-Sa 12:00-22:00", "phone": "+1-215-496-9222", "smoking": "no", "website": "http://sottorestaurant.net/", "wheelchair": "no"}}, {"type": "node", "id": 2256040057, "lat": 39.9506774, "lon": -75.1632811, "tags": {"addr:city": "Philadelphia", "addr:housenumber": "1336", "addr:postcode": "19107", "addr:street": "Chestnut Street", "amenity": "bar", "check_date": "2023-10-12", "contact:facebook": "https://www.facebook.com/LuckyStrikePhiladelphia", "contact:instagram": "https://www.instagram.com/luckystrikeph", "leisure": "bowling_alley", "name": "Lucky Strike", "opening_hours": "Mo-Th 16:00-23:00, Fr 14:00-26:00, Sa 12:00-26:00, Su 12:00-23:00", "phone": "+1 215-545-2471", "sport": "10pin", "website": "https://www.luckystrikeent.com/location/lucky-strike-philadelphia"}}, {"type": "node", "id": 2256040059, "lat": 39.9523632, "lon": -75.187309, "tags": {"amenity": "restaurant", "name": "Picnic"}}, {"type": "node", "id": 2267258438, "lat": 39.9497204, "lon": -75.1706366, "tags": {"addr:housenumber": "205", "addr:street": "South 18th Street", "amenity": "restaurant", "check_date": "2023-04-11", "contact:phone": "+1 215-732-6622", "contact:website": "https://www.rouge98.com/", "name": "Rouge"}}, {"type": "node", "id": 2267258439, "lat": 39.9499539, "lon": -75.1699232, "tags": {"addr:city": "Philadelphia", "addr:housenumber": "1714", "addr:postcode": "19103", "addr:street": "Walnut Street", "amenity": "restaurant", "check_date": "2023-10-15", "contact:facebook": "https://www.facebook.com/pietroscoaloven", "contact:instagram": "https://www.instagram.com/pietrositalian", "name": "Pietro's Coal Oven Pizza", "opening_hours": "Mo-Th,Su 12:00-20:30; Fr-Sa 12:00-21:30", "phone": "+1 215-735-8090", "website": "https://pietrospizza.com"}}, {"type": "node", "id": 2267258440, "lat": 39.9491709, "lon": -75.1636593, "tags": {"addr:city": "Philadelphia", "addr:housenumber": "1334", "addr:postcode": "19107", "addr:street": "Walnut Street", "amenity": "restaurant", "check_date": "2023-04-11", "contact:phone": "+1 215-985-4155", "contact:website": "https://www.saharagrillphiladelphia.com/", "cuisine": "middle_eastern", "name": "Sahara Grill", "opening_hours": "11:00-22:00"}}, {"type": "node", "id": 2267258442, "lat": 39.9520693, "lon": -75.1596357, "tags": {"addr:city": "Philadelphia", "addr:housenumber": "1113", "addr:postcode": "19107", "addr:street": "Market Street", "amenity": "restaurant", "brand": "Hard Rock Cafe", "brand:wikidata": "Q918151", "check_date": "2023-04-12", "contact:phone": "+1 215-238-1000", "contact:website": "https://www.hardrockcafe.com/location/philadelphia/", "cuisine": "american", "name": "Hard Rock Cafe", "opening_hours": "Mo-Th,Su 11:30-22:00; Fr-Sa 11:30-23:00"}}, {"type": "node", "id": 2296211827, "lat": 39.9397655, "lon": -75.1561811, "tags": {"addr:city": "Philadelphia", "addr:housenumber": "768", "addr:postcode": "19147", "addr:state": "PA", "addr:street": "South 8th Street", "amenity": "restaurant", "contact:facebook": "https://www.facebook.com/Cucinamariasouthphilly/", "cuisine": "italian", "name": "Cucina Maria", "opening_hours": "Mo off; Tu-Th,Su 11:00-22:00; Fr-Sa 11:00-23:00", "phone": "+1 215-408-0020", "website": "https://cucinamaria.restaurant/menu.html"}}, {"type": "node", "id": 2296287498, "lat": 39.9290669, "lon": -75.1646811}, {"type": "node", "id": 2296287506, "lat": 39.9298649, "lon": -75.1629916, "tags": {"amenity": "restaurant", "contact:facebook": "https://www.facebook.com/thedutchphilly/", "email": "lee@thedutchphilly.com", "name": "The Dutch", "opening_hours": "Mo-Fr 08:00-15:00; Sa-Su 08:00-14:00", "outdoor_seating": "yes", "phone": "+1-215-551-5000", "website": "https://thedutchphilly.com/"}}, {"type": "node", "id": 2296287510, "lat": 39.9297013, "lon": -75.1630144, "tags": {"amenity": "restaurant", "cuisine": "american", "name": "Mish Mish", "opening_hours": "Th,Su,Mo 17:00-21:00; Fr-Sa 17:00-22:00", "phone": "+1-267-761-9750", "website": "https://www.mishmishphilly.com/"}}, {"type": "node", "id": 2296287513, "lat": 39.9297478, "lon": -75.1634446, "tags": {"amenity": "restaurant", "cuisine": "sushi", "name": "Izumi"}}, {"type": "node", "id": 2296287519, "lat": 39.9287214, "lon": -75.1651251, "tags": {"amenity": "restaurant", "cuisine": "pizza;italian;pasta", "name": "LaScalla\u2019s Birra", "opening_hours": "Mo-Fr 16:00-23:00; Sa-Su 11:30-23:00", "website": "https://www.lascalasbirra.com/"}}, {"type": "node", "id": 2296287523, "lat": 39.9259892, "lon": -75.1678021, "tags": {"addr:city": "Philadelphia", "addr:housenumber": "1927", "addr:postcode": "19148", "addr:state": "PA", "addr:street": "East Passyunk Avenue", "amenity": "restaurant", "cuisine": "italian", "name": "Le Virtu", "opening_hours": "Mo-Th 17:00-22:00; Fr-Sa 17:00-22:30; Su 16:00-21:30", "website": "https://www.levirtu.com/"}}, {"type": "node", "id": 2296287526, "lat": 39.9301938, "lon": -75.1632221, "tags": {"amenity": "restaurant", "cuisine": "new_american", "name": "Stateside"}}, {"type": "node", "id": 2296511242, "lat": 39.9674878, "lon": -75.176882, "tags": {"amenity": "restaurant", "name": "Bishop's Collar", "website": "https://thecollar.us/"}}, {"type": "node", "id": 2296511246, "lat": 39.9698371, "lon": -75.1763184}, {"type": "node", "id": 2296514766, "lat": 39.9684673, "lon": -75.1768339, "tags": {"addr:city": "Philadelphia", "addr:housenumber": "726", "addr:postcode": "19130", "addr:street": "N 24th St.", "amenity": "restaurant", "name": "Bad Brother", "phone": "+1-215-235-2460", "website": "https://www.badbrotherphilly.com/"}}, {"type": "node", "id": 2302752751, "lat": 39.9399838, "lon": -75.1529309, "tags": {"amenity": "restaurant", "cuisine": "seafood", "name": "Little Fish"}}, {"type": "node", "id": 2311701347, "lat": 39.9807208, "lon": -75.1281925, "tags": {"addr:housenumber": "2313", "addr:street": "Frankford Avenue", "amenity": "restaurant", "cuisine": "pizza", "drive_in": "no", "microbrewery": "no", "name": "Pizza Brain", "outdoor_seating": "no", "smoking": "no", "takeaway": "yes", "wheelchair": "limited"}}, {"type": "node", "id": 2340613008, "lat": 39.9406306, "lon": -75.1476433, "tags": {"addr:city": "Philadelphia", "addr:housenumber": "627", "addr:state": "PA", "addr:street": "South 3rd Street", "amenity": "restaurant", "check_date": "2023-10-17", "cuisine": "italian", "name": "Cry Baby Pasta", "opening_hours": "Mo off; Tu-Su 17:00+", "phone": "+1-267-534-3076", "website": "http://crybabypasta.com"}}, {"type": "node", "id": 2340693461, "lat": 39.940722, "lon": -75.147855, "tags": {"addr:housenumber": "624", "addr:street": "South 3rd Street", "amenity": "restaurant", "check_date": "2023-04-12", "contact:phone": "+1 215-922-5000", "contact:website": "https://www.sushiplanet-pa.com/", "cuisine": "sushi", "name": "Sushi Planet", "opening_hours": "Mo-Tu,Su 16:00-21:30; We-Th 12:00-21:30; Fr-Sa 12:00-22:30"}}, {"type": "node", "id": 2340697895, "lat": 39.9404505, "lon": -75.1492578, "tags": {"addr:housenumber": "701", "addr:street": "South 4th Street", "amenity": "restaurant", "check_date": "2023-10-17", "name": "SouthWark", "phone": "+1 267-930-8538", "website": "http://southwarkrestaurantphilly.com"}}, {"type": "node", "id": 2351570659, "lat": 39.9204439, "lon": -75.1417696}, {"type": "node", "id": 2351570899, "lat": 39.9202012, "lon": -75.1419181}, {"type": "node", "id": 2351570903, "lat": 39.9195474, "lon": -75.1411337}, {"type": "node", "id": 2351570962, "lat": 39.9201461, "lon": -75.1415742}, {"type": "node", "id": 2351571091, "lat": 39.9200357, "lon": -75.1417498}, {"type": "node", "id": 2351571139, "lat": 39.920322, "lon": -75.14187}, {"type": "node", "id": 2351571153, "lat": 39.9192837, "lon": -75.1412682}, {"type": "node", "id": 2351571168, "lat": 39.9201371, "lon": -75.1415373}, {"type": "node", "id": 2351571183, "lat": 39.9200574, "lon": -75.1417631}, {"type": "node", "id": 2351571202, "lat": 39.9193725, "lon": -75.141316}, {"type": "node", "id": 2351571218, "lat": 39.920096, "lon": -75.1415955}, {"type": "node", "id": 2351571254, "lat": 39.9203886, "lon": -75.1419139}, {"type": "node", "id": 2351571296, "lat": 39.9200885, "lon": -75.1415578}, {"type": "node", "id": 2351571336, "lat": 39.9202188, "lon": -75.1418715}, {"type": "node", "id": 2351571451, "lat": 39.9203009, "lon": -75.1419246}, {"type": "node", "id": 2351571485, "lat": 39.9193584, "lon": -75.1410391}, {"type": "node", "id": 2351571527, "lat": 39.9200372, "lon": -75.1418111}, {"type": "node", "id": 2356275983, "lat": 40.073649, "lon": -75.2026354, "tags": {"addr:city": "Philadelphia", "addr:country": "US", "addr:housenumber": "8201", "addr:postcode": "19118", "addr:street": "Germantown Avenue", "amenity": "restaurant", "cuisine": "mexican", "name": "El Poquito", "source": "survey"}}, {"type": "node", "id": 2377568646, "lat": 39.9603209, "lon": -75.1686379, "tags": {"addr:city": "Philadelphia", "addr:country": "US", "addr:housenumber": "1804", "addr:postcode": "19130", "addr:state": "PA", "addr:street": "Callowhill Street", "amenity": "restaurant", "cuisine": "diner;breakfast;brunch", "diet:vegan": "yes", "diet:vegetarian": "yes", "name": "Sabrina's Cafe - Art Museum", "opening_hours": "Mo-Su 08:00-15:00", "outdoor_seating": "yes", "phone": "+1-215-636-9061", "website": "https://www.sabrinascafe.com/"}}, {"type": "node", "id": 2390519810, "lat": 39.9362197, "lon": -75.146852, "tags": {"amenity": "restaurant", "name": "Kennett Restaurant"}}, {"type": "node", "id": 2419063592, "lat": 39.9477622, "lon": -75.2228257, "tags": {"addr:city": "Philadelphia", "addr:housenumber": "701", "addr:postcode": "19143", "addr:street": "South 50th Street", "amenity": "bar", "cuisine": "pizza", "diet:vegan": "yes", "diet:vegetarian": "yes", "food": "pizza", "name": "Dock Street Brewing Company", "outdoor_seating": "yes", "website": "https://www.dockstreetbeer.com/"}}, {"type": "node", "id": 2423064966, "lat": 39.904272, "lon": -75.169616, "tags": {"amenity": "pub", "name": "Victory Beer Hall", "outdoor_seating": "yes", "wheelchair": "yes"}}, {"type": "node", "id": 2423132771, "lat": 39.904436, "lon": -75.169466, "tags": {"amenity": "pub", "name": "Broad Street Bullies Pub"}}, {"type": "node", "id": 2443962972, "lat": 39.9533741, "lon": -75.2169451}, {"type": "node", "id": 2457180088, "lat": 39.9544332, "lon": -75.1667563, "tags": {"addr:housename": "Phoenix Building", "addr:housenumber": "1600", "addr:postcode": "19103", "addr:street": "Arch Street", "amenity": "pub", "check_date": "2023-10-09", "contact:facebook": "https://www.facebook.com/tnnphilly", "name": "Tir na nOg", "opening_hours": "Mo 11:00-20:00; Tu-We 11:00-21:00; Th-Fr 11:00-22:00; Sa 09:00-22:00; Su 09:00-20:00", "phone": "+1 267-514-1700", "source": "survey", "website": "https://tirnanogphilly.com/"}}, {"type": "node", "id": 2457190028, "lat": 39.9483288, "lon": -75.1663588, "tags": {"addr:housenumber": "1500", "addr:postcode": "19102", "addr:street": "Locust Street", "amenity": "pub", "name": "Fado", "source": "survey", "website": "https://www.fadoirishpub.com/philadelphia/", "wheelchair": "yes"}}, {"type": "node", "id": 2507745088, "lat": 39.9378591, "lon": -75.1446142, "tags": {"addr:housenumber": "775", "addr:street": "South Front Street", "amenity": "restaurant", "name": "Catahoula Bar & Restaurant"}}, {"type": "node", "id": 2570122961, "lat": 39.9707139, "lon": -75.1352007, "tags": {"addr:city": "Philadelphia", "addr:housenumber": "115", "addr:postcode": "19125", "addr:street": "East Girard Avenue", "amenity": "restaurant", "cuisine": "pizza", "name": "Pizzeria Beddia", "website": "https://www.pizzeriabeddia.com/"}}, {"type": "node", "id": 2570897980, "lat": 39.9645934, "lon": -75.1659955}, {"type": "node", "id": 2570898005, "lat": 39.964624, "lon": -75.1659892}, {"type": "node", "id": 2570898008, "lat": 39.9645988, "lon": -75.1659823}, {"type": "node", "id": 2570898019, "lat": 39.9646168, "lon": -75.1659785}, {"type": "node", "id": 2570898020, "lat": 39.9647917, "lon": -75.1660861}, {"type": "node", "id": 2570898022, "lat": 39.9647754, "lon": -75.1659569}, {"type": "node", "id": 2571727374, "lat": 39.9633197, "lon": -75.1630934}, {"type": "node", "id": 2571727377, "lat": 39.9630169, "lon": -75.1644533, "tags": {"addr:city": "Philadelphia", "addr:housenumber": "1547", "addr:postcode": "19130", "addr:state": "PA", "addr:street": "Spring Garden Street", "amenity": "restaurant", "branch": "Spring Garden", "brand": "City View Pizza", "check_date": "2023-10-10", "cuisine": "pizza", "name": "City View Pizza", "opening_hours": "Mo-Th 11:00-21:00; Fr-Sa 11:00-22:00; Su 12:00-21:00", "phone": "+1 215-564-1910", "website": "https://cityviewpizzaandgrill.com/sg"}}, {"type": "node", "id": 2571727551, "lat": 39.9629818, "lon": -75.1641824, "tags": {"addr:city": "Philadelphia", "addr:housenumber": "1537", "addr:postcode": "19130", "addr:state": "PA", "addr:street": "Spring Garden Street", "amenity": "restaurant", "name": "I Tea", "phone": "+1 215-665-8886"}}, {"type": "node", "id": 2571727557, "lat": 39.9629617, "lon": -75.1639829, "tags": {"addr:city": "Philadelphia", "addr:housenumber": "1529-31", "addr:postcode": "19130", "addr:state": "PA", "addr:street": "Spring Garden Street", "amenity": "restaurant", "check_date": "2023-10-10", "cuisine": "pizza", "name": "John's Place", "opening_hours": "Mo-Fr 07:30-28:45; Sa 07:30-14:45; Su off", "phone": "+1 215-665-0972", "website": "http://johnsplacepa.com"}}, {"type": "node", "id": 2571727569, "lat": 39.9630257, "lon": -75.1645107, "tags": {"addr:city": "Philadelphia", "addr:housenumber": "1549", "addr:postcode": "19130", "addr:state": "PA", "addr:street": "Spring Garden Street", "amenity": "pub", "check_date": "2023-10-10", "contact:facebook": "https://www.facebook.com/kellianns", "contact:instagram": "https://www.instagram.com/kelliannsbarandgrill", "name": "Kelliann's Bar & Grill", "opening_hours:bar": "11:00-26:00", "opening_hours:kitchen": "11:00-22:00", "phone": "+1 215-563-6990", "website": "https://www.kellianns.com"}}, {"type": "node", "id": 2571727598, "lat": 39.9643953, "lon": -75.1613228, "tags": {"addr:city": "Philadelphia", "addr:housenumber": "600", "addr:postcode": "19130", "addr:state": "PA", "addr:street": "North Broad Street", "amenity": "restaurant", "name": "South Restaurant & Jazz Club", "website": "https://www.southjazzkitchen.com/"}}, {"type": "node", "id": 2571727632, "lat": 39.9639992, "lon": -75.1613742, "tags": {"addr:city": "Philadelphia", "addr:housenumber": "600", "addr:state": "PA", "addr:street": "North Broad Street", "amenity": "restaurant", "name": "Vie", "operator": "Cescaphe Event Group"}}, {"type": "node", "id": 2571955549, "lat": 39.9630578, "lon": -75.1680189, "tags": {"addr:city": "Philadelphia", "addr:housenumber": "1820", "addr:street": "Spring Garden St", "amenity": "restaurant", "cuisine": "chinese", "fixme": "This POI may have closed. I do not see it from the street.", "name": "Golden Chopsticks"}}, {"type": "node", "id": 2571955811, "lat": 39.963226, "lon": -75.169319, "tags": {"addr:city": "Philadelphia", "addr:housenumber": "1822", "addr:postcode": "19130", "addr:state": "PA", "addr:street": "Spring Garden Street", "amenity": "restaurant", "cuisine": "japanese", "name": "Kansai Japanese Cuisine", "opening_hours": "Tu-Th 11:00-22:00; Fr 11:00-22:30; Sa 12:00-22:30; Su 12:00-22:00", "phone": "+1 215-568-0888", "website": "https://www.kansaiphilly.com/"}}, {"type": "node", "id": 2571956193, "lat": 39.9631401, "lon": -75.1693389, "tags": {"amenity": "restaurant", "name": "Christie's Deli", "phone": "+1 215-563-0555"}}, {"type": "node", "id": 2572010838, "lat": 39.9539673, "lon": -75.1963833, "tags": {"addr:city": "Philadelphia", "addr:country": "US", "addr:housenumber": "3636", "addr:postcode": "19104", "addr:state": "PA", "addr:street": "Sansom Street", "amenity": "restaurant", "cuisine": "asian", "email": "pod.info@starr-restaurants.com", "name": "Pod", "opening_hours": "Mo-Th 11:30-22:00; Fr 11:30-23:00; Sa 17:00-23:00; Su 17:00-22:00", "operator": "Starr Restarants", "phone": "+1-215-387-1803", "website": "https://www.podrestaurant.com/"}}, {"type": "node", "id": 2572176527, "lat": 39.9646276, "lon": -75.1706207}, {"type": "node", "id": 2572176530, "lat": 39.9646385, "lon": -75.1706184}, {"type": "node", "id": 2572176536, "lat": 39.9646312, "lon": -75.1706499}, {"type": "node", "id": 2572176560, "lat": 39.9646427, "lon": -75.1706604}, {"type": "node", "id": 2572176566, "lat": 39.9648348, "lon": -75.170628}, {"type": "node", "id": 2572176569, "lat": 39.9646412, "lon": -75.1706479}, {"type": "node", "id": 2572176575, "lat": 39.9648356, "lon": -75.1706336}, {"type": "node", "id": 2572176585, "lat": 39.9647986, "lon": -75.1706386}, {"type": "node", "id": 2572176594, "lat": 39.9647825, "lon": -75.170634}, {"type": "node", "id": 2572176622, "lat": 39.9648061, "lon": -75.170639}, {"type": "node", "id": 2572176629, "lat": 39.964788, "lon": -75.1706328}, {"type": "node", "id": 2572176632, "lat": 39.9647837, "lon": -75.1706439}, {"type": "node", "id": 2572176635, "lat": 39.9647284, "lon": -75.1706426}, {"type": "node", "id": 2572176661, "lat": 39.9647299, "lon": -75.170655}, {"type": "node", "id": 2572176665, "lat": 39.9648929, "lon": -75.1706141}, {"type": "node", "id": 2572265673, "lat": 39.9653337, "lon": -75.1723916, "tags": {"addr:city": "Philadelphia", "addr:housenumber": "601", "addr:postcode": "19130", "addr:state": "PA", "addr:street": "North 21st Street", "amenity": "pub", "contact:facebook": "https://www.facebook.com/theFairviewPhilly/", "name": "The Fairview Philly", "opening_hours": "Mo-Th 16:00-24:00, Fr 16:00-26:00, Sa,Su 11:00-24:00", "phone": "+1-215-796-7900"}}, {"type": "node", "id": 2573928772, "lat": 39.9671164, "lon": -75.1777126, "tags": {"amenity": "restaurant", "name": "Little Pete's Restaurant"}}, {"type": "node", "id": 2575194593, "lat": 39.9671859, "lon": -75.1748804, "tags": {"addr:housenumber": "2230", "addr:street": "Fairmount Avenue", "amenity": "restaurant", "cuisine": "greek", "name": "Zorba's Tavern"}}, {"type": "node", "id": 2575197312, "lat": 39.9670689, "lon": -75.1733361}, {"type": "node", "id": 2575197316, "lat": 39.9670688, "lon": -75.1733393}, {"type": "node", "id": 2575197346, "lat": 39.966952, "lon": -75.1733612}, {"type": "node", "id": 2575197444, "lat": 39.9672036, "lon": -75.1733084}, {"type": "node", "id": 2581146172, "lat": 39.9445056, "lon": -75.1717261, "tags": {"addr:city": "Philadelphia", "addr:housenumber": "1743", "addr:postcode": "19146", "addr:state": "PA", "addr:street": "South Street", "amenity": "restaurant", "check_date": "2023-10-14", "contact:instagram": "https://www.instagram.com/lazarospizzeria", "cuisine": "pizza", "name": "Lazaro's Pizzeria & Grill", "opening_hours": "Mo-Th 11:00-20:45; Fr-Sa 11:00-21:45; Su 12:00-20:45", "phone": "+1 215-545-2775", "website": "https://www.lazarospizzeriagrill.com"}}, {"type": "node", "id": 2581938913, "lat": 39.9630609, "lon": -75.170932, "tags": {"addr:housenumber": "529", "addr:street": "North 20th Street", "amenity": "restaurant", "name": "McCrossen's Tavern", "outdoor_seating": "yes"}}, {"type": "node", "id": 2581946414, "lat": 39.9603604, "lon": -75.169326, "tags": {"addr:housenumber": "1822", "addr:street": "Callowhill Street", "amenity": "restaurant", "cuisine": "japanese", "name": "Doma Japanese Restaurant", "opening_hours": "Mo-Th 17:00-21:00; Fr 17:00-21:30; Sa 16:00-21:30; Su 16:00-21:00"}}, {"type": "node", "id": 2581946416, "lat": 39.9603759, "lon": -75.169451, "tags": {"addr:housenumber": "1824", "addr:street": "Callowhill Street", "amenity": "restaurant", "cuisine": "indian", "name": "King of Tandoor"}}, {"type": "node", "id": 2581946417, "lat": 39.9603963, "lon": -75.1696291, "tags": {"addr:housenumber": "1836", "addr:street": "Callowhill Street", "amenity": "pub", "name": "Kite and Key", "outdoor_seating": "yes"}}, {"type": "node", "id": 2583160710, "lat": 39.9455589, "lon": -75.1717866, "tags": {"addr:city": "Philadelphia", "addr:housenumber": "1801", "addr:postcode": "19146", "addr:state": "PA", "addr:street": "Lombard Street", "amenity": "restaurant", "cuisine": "korean", "diet:pescetarian": "yes", "diet:vegetarian": "yes", "lgbtq": "welcome", "name": "SouthGate", "opening_hours": "Tu-Th 17:00-23:00; Fr 16:00-00:00; Sa 11:00-00:00; Su 11:00-21:00", "payment:cash": "yes", "payment:credit_cards": "yes", "payment:debit_cards": "yes", "phone": "+1 215-560-8443", "reservation": "recommended", "smoking": "outside", "website": "https://southgatephilly.com"}}, {"type": "node", "id": 2584498142, "lat": 39.9675025, "lon": -75.177095, "tags": {"amenity": "restaurant", "cuisine": "pizza", "name": "Luigi's Pizzeria"}}, {"type": "node", "id": 2604082519, "lat": 40.0691587, "lon": -75.1995048}, {"type": "node", "id": 2604082520, "lat": 40.0691527, "lon": -75.1995107}, {"type": "node", "id": 2604082535, "lat": 40.0691598, "lon": -75.1995229}, {"type": "node", "id": 2604082563, "lat": 40.06915, "lon": -75.1994898}, {"type": "node", "id": 2611799802, "lat": 39.9523255, "lon": -75.186976, "tags": {"addr:city": "Philadelphia", "addr:housenumber": "3131", "addr:postcode": "19104", "addr:street": "Walnut Street", "amenity": "pub", "brewery": "yes", "name": "Misconduct Tavern", "opening_hours": "We-Th 16:00-0:00, Fr-Sa 12:00-01:30", "phone": "+12672924359", "website": "https://www.misconducttavern.com/"}}, {"type": "node", "id": 2613465619, "lat": 39.9628076, "lon": -75.1399534, "tags": {"addr:city": "Philadelphia", "addr:housenumber": "149", "addr:postcode": "19123", "addr:street": "Brown Street", "amenity": "bar", "name": "The Druid's Keep", "phone": "+1 215-413-0455"}}, {"type": "node", "id": 2613831409, "lat": 39.9634354, "lon": -75.1427236}, {"type": "node", "id": 2613831410, "lat": 39.9645985, "lon": -75.1425425}, {"type": "node", "id": 2613831416, "lat": 39.9642318, "lon": -75.1405536, "tags": {"addr:city": "Philadelphia", "addr:housenumber": "903", "addr:postcode": "19123", "addr:street": "North 2nd Street", "amenity": "restaurant", "cuisine": "pizza", "name": "Rustica", "phone": "+1 215-627-1393", "website": "https://www.rusticaphilly.com/"}}, {"type": "node", "id": 2613831430, "lat": 39.9653456, "lon": -75.1405486}, {"type": "node", "id": 2613831462, "lat": 39.9620596, "lon": -75.1409421, "tags": {"addr:city": "Philadelphia", "addr:housenumber": "705", "addr:postcode": "19123", "addr:street": "North 2nd Street", "amenity": "bar", "name": "Bourbon & Branch", "opening_hours": "Sa-Su 10:00-02:00; Mo-Fr 11:00-02:00", "phone": "+1 215-238-0660", "website": "https://bourbonandbranchphilly.com/"}}, {"type": "node", "id": 2613831471, "lat": 39.9650953, "lon": -75.138865}, {"type": "node", "id": 2613831481, "lat": 39.9633364, "lon": -75.1410412}, {"type": "node", "id": 2613831491, "lat": 39.9626592, "lon": -75.1411997}, {"type": "node", "id": 2613854615, "lat": 39.961184, "lon": -75.1414663, "tags": {"addr:city": "Philadelphia", "addr:housenumber": "604", "addr:postcode": "19123", "addr:street": "North 2nd Street", "amenity": "restaurant", "cuisine": "japanese", "name": "Koi", "phone": "+1 215-413-1606", "website": "http://koiphila.com/"}}, {"type": "node", "id": 2613854616, "lat": 39.9610437, "lon": -75.1435377, "tags": {"addr:city": "Philadelphia", "addr:housenumber": "301", "addr:postcode": "19123", "addr:street": "Spring Garden Street", "amenity": "restaurant", "cuisine": "asian", "name": "KenShin Asian Diner", "phone": "+1-215-925-8887", "website": "http://kenshinasiandiner.com/"}}, {"type": "node", "id": 2613854617, "lat": 39.9610231, "lon": -75.1432118, "tags": {"addr:city": "Philadelphia", "addr:housenumber": "537", "addr:postcode": "19123", "addr:street": "North 3rd Street", "amenity": "bar", "name": "Finnigan's Wake", "phone": "+1 215-574-9317", "website": "https://www.finnigans.com/", "wheelchair": "yes"}}, {"type": "node", "id": 2624839604, "lat": 39.9638539, "lon": -75.1444773}, {"type": "node", "id": 2654393206, "lat": 39.9407975, "lon": -75.1796943, "tags": {"amenity": "restaurant", "cuisine": "mexican", "name": "Los Camaradas", "outdoor_seating": "yes"}}, {"type": "node", "id": 2699315011, "lat": 39.9277289, "lon": -75.1756328}, {"type": "node", "id": 2699324359, "lat": 39.9289642, "lon": -75.1753673}, {"type": "node", "id": 2699327332, "lat": 39.9277687, "lon": -75.1769902}, {"type": "node", "id": 2699345244, "lat": 39.9613644, "lon": -75.1446329, "tags": {"addr:city": "Philadelphia", "addr:housenumber": "337", "addr:postcode": "19123", "addr:state": "PA", "addr:street": "Spring Garden Street", "amenity": "restaurant", "cuisine": "arab", "name": "Al-Sham #5", "phone": "+1 215-922-7700", "website": "https://www.alshamrestaurant.com/locations"}}, {"type": "node", "id": 2699346739, "lat": 39.9644678, "lon": -75.1403339, "tags": {"addr:city": "Philadelphia", "addr:housenumber": "909", "addr:postcode": "19123", "addr:street": "North 2nd Street", "amenity": "bar", "leisure": "bowling_alley", "name": "North Bowl", "phone": "+1 215-238-2695", "sport": "10pin", "website": "https://www.northbowlphilly.com/"}}, {"type": "node", "id": 2699547980, "lat": 39.9584224, "lon": -75.1927513}, {"type": "node", "id": 2699562910, "lat": 39.955926, "lon": -75.1905569, "tags": {"addr:city": "Philadelphia", "addr:housenumber": "3333", "addr:postcode": "19104", "addr:state": "PA", "addr:street": "Market Street", "amenity": "restaurant", "check_date": "2024-07-26", "contact:phone": "+1 215-222-4500", "contact:website": "https://www.landmarkamericana.com/", "cuisine": "american", "name": "Landmark Americana", "opening_hours": "Mo-We,Su 11:00-24:00, Th-Sa 11:00-25:00"}}, {"type": "node", "id": 2700099428, "lat": 39.9613783, "lon": -75.146399}, {"type": "node", "id": 2700416545, "lat": 39.9551651, "lon": -75.1945212, "tags": {"addr:city": "Philadelphia", "addr:housenumber": "20", "addr:postcode": "19104", "addr:state": "PA", "addr:street": "South 36th Street", "amenity": "restaurant", "contact:facebook": "https://www.facebook.com/axispizza/", "cuisine": "pizza", "delivery": "yes", "name": "The Axis Pizza", "opening_hours": "09:00-22:00", "phone": "+1 215-382-2199", "takeaway": "yes", "website": "https://www.axispizza.com/", "wheelchair": "no"}}, {"type": "node", "id": 2700454338, "lat": 39.9589562, "lon": -75.1903178}, {"type": "node", "id": 2700454339, "lat": 39.9589546, "lon": -75.1904693}, {"type": "node", "id": 2700454344, "lat": 39.9590212, "lon": -75.1906756}, {"type": "node", "id": 2700454345, "lat": 39.9589399, "lon": -75.190674}, {"type": "node", "id": 2700454346, "lat": 39.9589392, "lon": -75.1907305}, {"type": "node", "id": 2700454347, "lat": 39.958862, "lon": -75.190729}, {"type": "node", "id": 2700454348, "lat": 39.9588677, "lon": -75.1902187}, {"type": "node", "id": 2700454349, "lat": 39.9589432, "lon": -75.1902202}, {"type": "node", "id": 2700454350, "lat": 39.9589421, "lon": -75.1903181}, {"type": "node", "id": 2700454353, "lat": 39.9590235, "lon": -75.1904705}, {"type": "node", "id": 2701472360, "lat": 39.9439702, "lon": -75.1674777, "tags": {"addr:city": "Philadelphia", "addr:housenumber": "1509", "addr:postcode": "19146", "addr:street": "South Street", "amenity": "bar", "check_date": "2023-10-15", "contact:instagram": "https://www.instagram.com/bobandbarbs", "name": "Bob and Barbara's", "opening_hours": "Mo,We-Su 16:00-26:00; Tu off", "phone": "+1 215-545-4511", "website": "https://www.bobandbarbaras.com/", "wheelchair": "yes"}}, {"type": "node", "id": 2701472727, "lat": 39.9439783, "lon": -75.1675414, "tags": {"addr:city": "Philadelphia", "addr:housenumber": "1511", "addr:postcode": "19146", "addr:street": "South Street", "amenity": "restaurant", "check_date": "2023-10-15", "contact:facebook": "https://www.facebook.com/thequickfixx", "cuisine": "italian", "name": "Quick Fixx", "opening_hours": "11:00-21:00", "phone": "+1 267-273-1066", "website": "https://thequickfixx.com/"}}, {"type": "node", "id": 2705744113, "lat": 39.9262759, "lon": -75.1753135, "tags": {"addr:city": "Philadelphia", "addr:housenumber": "2000", "addr:postcode": "19145", "addr:street": "South Bouvier Street", "amenity": "restaurant", "cuisine": "pizza", "name": "San Lucas Pizzeria", "opening_hours": "Mo 11:00-01:00; Tu-Fr 11:00-22:00; Sa-Su 11:00-01:00", "phone": "+1 215-465-0134", "website": "https://sanlucasphila.webs.com/"}}, {"type": "node", "id": 2709149666, "lat": 39.9322408, "lon": -75.147567, "tags": {"addr:city": "Philadelphia", "addr:housenumber": "1219", "addr:postcode": "19147", "addr:street": "Federal Street", "amenity": "restaurant", "cuisine": "donut;fried_chicken", "name": "Federal Donuts", "opening_hours": "Mo-Fr 07:00-15:00; Sa-Su 07:00-17:00", "outdoor_seating": "no", "phone": "+1 267 687 8258", "smoking": "no", "takeaway": "yes", "website": "https://federaldonuts.com/"}}, {"type": "node", "id": 2720260925, "lat": 40.0080956, "lon": -75.151203, "tags": {"amenity": "restaurant", "cuisine": "pizza", "name": "City View Pizza"}}, {"type": "node", "id": 2740627574, "lat": 39.9404355, "lon": -75.1758852, "tags": {"addr:city": "Philadelphia", "addr:housenumber": "917", "addr:postcode": "19146", "addr:street": "South 20th Street", "amenity": "restaurant", "cuisine": "pizza", "name": "South Side Pizza", "website": "http://www.southsidepizzaphilly.com/"}}, {"type": "node", "id": 2749790457, "lat": 39.9273144, "lon": -75.1714185}, {"type": "node", "id": 2749790461, "lat": 39.9273406, "lon": -75.1714131}, {"type": "node", "id": 2749790464, "lat": 39.9271867, "lon": -75.1714475}, {"type": "node", "id": 2758582549, "lat": 39.9216197, "lon": -75.1785713}, {"type": "node", "id": 2758582551, "lat": 39.9216341, "lon": -75.1787546}, {"type": "node", "id": 2758582553, "lat": 39.9216327, "lon": -75.178742}, {"type": "node", "id": 2780399548, "lat": 40.0436416, "lon": -75.1906976, "tags": {"addr:city": "Philadelphia", "addr:housenumber": "6555", "addr:postcode": "19119", "addr:street": "Greene Street", "amenity": "restaurant", "contact:phone": "+1 215-848-4550", "cuisine": "pizza", "name": "Toto's Pizzeria", "opening_hours": "Su-Th 11:00-22:00; Fr-Sa 11:00-23:00", "phone": "+1 215 848 4550", "website": "http://totosmtairy.com/"}}, {"type": "node", "id": 2795233692, "lat": 39.9584652, "lon": -75.15836, "tags": {"addr:city": "Philadelphia", "addr:housenumber": "325", "addr:postcode": "19107", "addr:street": "North 12th Street", "amenity": "restaurant", "check_date": "2023-10-11", "contact:instagram": "https://www.instagram.com/woodstreetpizza", "cuisine": "pizza", "name": "Wood Street Pizza", "opening_hours": "Mo-Tu 11:00-21:00; We 11:00-22:00; Th 11:00-23:00; Fr 11:00-24:00; Sa 12:00-24:00; Su 12:00-22:00", "phone": "+1-215-515-3382", "website": "https://www.woodstreetphilly.com/"}}, {"type": "node", "id": 2805227282, "lat": 39.9451878, "lon": -75.177063, "tags": {"addr:city": "Philadelphia", "addr:housenumber": "2101", "addr:postcode": "19146", "addr:street": "South Street", "amenity": "restaurant", "branch": "South Street", "name": "Sabrina's Cafe", "website": "https://www.sabrinascafe.com/location/sabrinas-cafe-south-street/", "wheelchair": "yes"}}, {"type": "node", "id": 2821950508, "lat": 39.9505355, "lon": -75.1690861, "tags": {"amenity": "restaurant", "cuisine": "seafood", "name": "Luke's Lobster", "source:cuisine": "survey"}}, {"type": "node", "id": 2822025477, "lat": 39.9488398, "lon": -75.1622899, "tags": {"addr:city": "Philadelphia", "addr:housenumber": "202", "addr:postcode": "19107", "addr:street": "South 13th Street", "amenity": "bar", "check_date": "2023-10-12", "lgbtq": "primary", "name": "Woody's Bar", "website": "https://woodysbar.com"}}, {"type": "node", "id": 2822026031, "lat": 39.9358102, "lon": -75.1619902, "tags": {"amenity": "bar", "name": "Devil's Den"}}, {"type": "node", "id": 2823713761, "lat": 40.0679481, "lon": -75.1967878, "tags": {"addr:housenumber": "7376", "addr:street": "Germantown Avenue", "amenity": "pub", "name": "Mermaid Inn", "phone": "+1-215-247-9797", "source": "survey", "website": "http://themermaidinn.net"}}, {"type": "node", "id": 2825584201, "lat": 39.928266, "lon": -75.1712331, "tags": {"addr:city": "Philadelphia", "addr:housenumber": "1508", "addr:postcode": "19145", "addr:street": "Moore Street", "amenity": "restaurant", "description": "Neighborhood yoga studio", "name": "ReNEW", "opening_hours": "Mo 12:00-21:00; Tu,Th 10:00-21:00; We 07:00-21:00; Fr 07:00-13:00; Sa 08:30-11:30", "website": "http://www.renewyogaphiladelphia.com", "wheelchair": "no"}}, {"type": "node", "id": 2845864074, "lat": 39.9280186, "lon": -75.1691214}, {"type": "node", "id": 2846939988, "lat": 40.0613918, "lon": -75.2345776}, {"type": "node", "id": 2846939989, "lat": 40.0614598, "lon": -75.234435}, {"type": "node", "id": 2846939990, "lat": 40.0612198, "lon": -75.2342395}, {"type": "node", "id": 2846939991, "lat": 40.0611518, "lon": -75.2343821}, {"type": "node", "id": 2848698990, "lat": 39.9366784, "lon": -75.1614021}, {"type": "node", "id": 2848698991, "lat": 39.9362004, "lon": -75.1618874}, {"type": "node", "id": 2876251699, "lat": 39.9390528, "lon": -75.1576839, "tags": {"addr:city": "Philadelphia", "addr:housenumber": "831", "addr:postcode": "19147", "addr:street": "Christian Street", "amenity": "bar", "name": "12 Steps Down", "opening_hours": "11:00-02:00", "phone": "+1 215 238 0379", "smoking": "yes", "website": "http://www.12stepsdown.com"}}, {"type": "node", "id": 2910156414, "lat": 39.9513934, "lon": -75.1737834, "tags": {"addr:city": "Philadelphia", "addr:housenumber": "118", "addr:postcode": "19103", "addr:street": "South 20th Street", "amenity": "restaurant", "check_date": "2023-04-11", "cuisine": "american", "name": "Village Whiskey", "opening_hours": "Mo 11:00-23:00;Tu-Th 11:00-24:00;Fr 11:00-01:00;Sa 10:30-01:00;Su 10:30-23:00", "phone": "+1 215 665 1088", "website": "https://villagewhiskey.com/"}}, {"type": "node", "id": 2931994044, "lat": 39.9359905, "lon": -75.1722224, "tags": {"addr:city": "Philadelphia", "addr:housenumber": "1216", "addr:postcode": "19146", "addr:street": "South 17th Street", "amenity": "bar", "name": "Se\u00f1or Baynard's Bar & Grill", "phone": "+1 215-462-1888", "smoking": "yes"}}, {"type": "node", "id": 2959498278, "lat": 39.9533074, "lon": -75.2183558}, {"type": "node", "id": 2959498279, "lat": 39.953327, "lon": -75.2184224}, {"type": "node", "id": 2959498281, "lat": 39.9535308, "lon": -75.2183108}, {"type": "node", "id": 2959498282, "lat": 39.953539, "lon": -75.2183796}, {"type": "node", "id": 2959498283, "lat": 39.953551, "lon": -75.2184844}, {"type": "node", "id": 2960031733, "lat": 39.877599, "lon": -75.239728, "tags": {"amenity": "bar", "brand": "Vino Volo", "brand:wikidata": "Q7932710", "indoor_seating": "yes", "name": "Vino Volo", "outdoor_seating": "no"}}, {"type": "node", "id": 2960041033, "lat": 39.877381, "lon": -75.240336, "tags": {"amenity": "restaurant", "name": "Chickie's & Pete's"}}, {"type": "node", "id": 2973059795, "lat": 39.9413269, "lon": -75.1539466, "tags": {"addr:city": "Philadelphia", "addr:housenumber": "611", "addr:postcode": "19147", "addr:street": "South 7th Street", "amenity": "restaurant", "cuisine": "malaysian", "name": "Kampar", "phone": "1-215-989-2202", "smoking": "no", "website": "https://www.kamparphilly.com/"}}, {"type": "node", "id": 3028921120, "lat": 39.9717762, "lon": -75.1262997, "tags": {"addr:city": "Philadelphia", "addr:country": "US", "addr:housenumber": "529", "addr:postcode": "19125", "addr:street": "East Girard Avenue", "amenity": "restaurant", "name": "Lloyd Whiskey Bar", "phone": "+1 215-425-4600", "website": "https://www.lloydwhiskeybar.com/"}}, {"type": "node", "id": 3040246034, "lat": 39.9471555, "lon": -75.1534825, "tags": {"addr:city": "Philadelphia", "addr:housenumber": "210", "addr:postcode": "19106", "addr:street": "West Washington Square", "amenity": "restaurant", "check_date": "2023-04-12", "contact:phone": "+1 215-592-7787", "contact:website": "https://talulasgarden.com", "cuisine": "american", "name": "Talula's Garden", "opening_hours": "Mo-Fr 17:00-22:00; Sa 16:00-22:00; Su 10:00-14:00 open \"brunch\", Su 16:00-22:00 open \"dinner\""}}, {"type": "node", "id": 3042654511, "lat": 39.9495483, "lon": -75.145966, "tags": {"addr:city": "Philadelphia", "addr:housenumber": "22", "addr:postcode": "19106", "addr:street": "South 3rd Street", "amenity": "bar", "check_date": "2023-10-16", "name": "National Mechanics", "opening_hours": "Mo-Tu 12:00-22:00, We-Fr 12:00-26:00, Sa 10:00-26:00, Su 10:00-22:00", "phone": "+1-215-701-4883", "smoking": "outside", "website": "https://www.nationalmechanics.com/", "wheelchair": "no", "wheelchair:description": "Their website says ramp at side wheelchair accessible but it's difficult to get attention of any staff from outside and there is trash/rubble on a very steep ramp."}}, {"type": "node", "id": 3076971133, "lat": 39.9480904, "lon": -75.1534068, "tags": {"addr:housenumber": "719", "addr:street": "Walnut Street", "amenity": "restaurant", "check_date": "2023-04-12", "contact:website": "https://www.fatsalmonsushi.com", "cuisine": "sushi", "name": "Fat Salmon", "opening_hours": "Mo off; Tu-Th 16:00-20:30; Fr-Sa 16:00-21:30; Su 16:00-20:00", "wheelchair": "yes"}}, {"type": "node", "id": 3076983433, "lat": 39.9485669, "lon": -75.157268, "tags": {"addr:city": "Philadelphia", "addr:housenumber": "929", "addr:postcode": "19107", "addr:street": "Walnut Street", "amenity": "restaurant", "check_date": "2023-04-13", "contact:website": "https://www.barrarossa.com", "name": "Barra Rossa", "opening_hours": "Tu 16:00-21:00; Mo off, Tu 12:00-21:00, We 12:00-21:00", "phone": "+1 215-644-9074", "wheelchair": "yes", "wheelchair:description": "entrance at right of front accessible."}}, {"type": "node", "id": 3092951029, "lat": 39.9699311, "lon": -75.1440071, "tags": {"amenity": "restaurant", "name": "Las Cazuelas", "source": "bug report"}}, {"type": "node", "id": 3094941729, "lat": 39.946541, "lon": -75.161027, "tags": {"addr:city": "Philadelphia", "addr:housenumber": "1137", "addr:postcode": "19107", "addr:street": "Spruce Street", "amenity": "restaurant", "check_date": "2023-04-12", "contact:facebook": "https://www.facebook.com/TriaPhilly", "cuisine": "tapas", "internet_access": "wlan", "name": "Tria", "opening_hours": "Mo-Th 16:00-21:30; Fr-Sa 12:00-22:00; Su 14:00-20:30", "phone": "+1 215 629 92 00", "website": "https://triaphilly.com", "wheelchair": "limited", "wheelchair:description": "Entrance and restroom accessible but unfortunately all seating in wheelchair accessible indoor area is high top tables. Outdoor seating tables in warmer weather."}}, {"type": "node", "id": 3103177329, "lat": 39.9499816, "lon": -75.1455883, "tags": {"addr:city": "Philadelphia", "addr:housenumber": "248", "addr:postcode": "19106", "addr:street": "Market Street", "amenity": "restaurant", "cuisine": "indian", "name": "Karma", "wheelchair": "yes", "wheelchair:description": "Front entrance and seating is wheelchair accessible. Restroom not yet assessed."}}, {"type": "node", "id": 3103189629, "lat": 39.9505254, "lon": -75.1454962, "tags": {"addr:city": "Philadelphia", "addr:housenumber": "7", "addr:postcode": "19106", "addr:street": "North 3rd Street", "amenity": "restaurant", "cuisine": "french", "name": "Bistro 7", "wheelchair": "limited", "wheelchair:description": "One step at entrance. Business says restroom is wheelchair accessible but needs to be reviewed and updated here."}}, {"type": "node", "id": 3133631576, "lat": 39.9648049, "lon": -75.1706289}, {"type": "node", "id": 3153814190, "lat": 39.9530951, "lon": -75.2184698, "tags": {"addr:city": "Philadelphia", "addr:housenumber": "310", "addr:postcode": "19143", "addr:street": "South 48th Street", "amenity": "restaurant", "cuisine": "caribbean;american", "name": "48th Street Grille", "opening_hours": "Tu-Th 11:00-21:00; Fr 09:00-22:00; Sa 10:00-22:00; Su 13:00-20:00", "phone": "+1 267-244-4764", "source": "Survey, web site", "website": "http://www.48thstreetgrille.com/"}}, {"type": "node", "id": 3265628446, "lat": 39.9425823, "lon": -75.1575045, "tags": {"addr:city": "Philadelphia", "addr:housenumber": "900", "addr:street": "South Street", "amenity": "restaurant", "cuisine": "barbecue", "name": "Percy Street Barbecue", "smoking": "no", "website": "http://www.percystreet.com/"}}, {"type": "node", "id": 3295299261, "lat": 39.9480153, "lon": -75.2241663, "tags": {"addr:city": "Philadelphia", "addr:housenumber": "5019", "addr:postcode": "19143", "addr:state": "PA", "addr:street": "Baltimore Avenue", "amenity": "restaurant", "cuisine": "mexican", "name": "Taco Angeleno"}}, {"type": "node", "id": 3306921057, "lat": 39.9694855, "lon": -75.134683, "tags": {"amenity": "pub", "name": "Frankford Hall"}}, {"type": "node", "id": 3306928574, "lat": 39.9692787, "lon": -75.1346547, "tags": {"amenity": "restaurant", "name": "Fette Sau"}}, {"type": "node", "id": 3306928575, "lat": 39.9696906, "lon": -75.1313239, "tags": {"amenity": "restaurant", "name": "Stock"}}, {"type": "node", "id": 3306928576, "lat": 39.976589, "lon": -75.14025, "tags": {"amenity": "restaurant", "name": "El Cafeito"}}, {"type": "node", "id": 3306928577, "lat": 39.9723637, "lon": -75.1391215, "tags": {"amenity": "restaurant", "cuisine": "mexican", "name": "Que Chula Es Puebla", "opening_hours": "Mo-Th, Su 10:00-21:00; Fr, Sa 10:00-22:00"}}, {"type": "node", "id": 3308112713, "lat": 39.9533715, "lon": -75.1555168}, {"type": "node", "id": 3308112714, "lat": 39.9531851, "lon": -75.1555554}, {"type": "node", "id": 3308112715, "lat": 39.9531939, "lon": -75.155628}, {"type": "node", "id": 3349293158, "lat": 40.044004, "lon": -75.0532354}, {"type": "node", "id": 3400941943, "lat": 39.9557827, "lon": -75.1725874}, {"type": "node", "id": 3400941944, "lat": 39.9557722, "lon": -75.1725161}, {"type": "node", "id": 3400941945, "lat": 39.9556899, "lon": -75.1726104}, {"type": "node", "id": 3401274279, "lat": 39.9496912, "lon": -75.1611846}, {"type": "node", "id": 3401274280, "lat": 39.9495448, "lon": -75.1612159}, {"type": "node", "id": 3401274281, "lat": 39.9495339, "lon": -75.1611291}, {"type": "node", "id": 3401274282, "lat": 39.9496805, "lon": -75.1610978}, {"type": "node", "id": 3401274295, "lat": 39.9502673, "lon": -75.1626403}, {"type": "node", "id": 3401274296, "lat": 39.9501536, "lon": -75.1626666}, {"type": "node", "id": 3401274297, "lat": 39.9501323, "lon": -75.1625091}, {"type": "node", "id": 3401274298, "lat": 39.9502492, "lon": -75.1624858}, {"type": "node", "id": 3401274364, "lat": 39.9533803, "lon": -75.1555894}, {"type": "node", "id": 3404334299, "lat": 39.948862, "lon": -75.1661924}, {"type": "node", "id": 3405465319, "lat": 39.951011, "lon": -75.170899}, {"type": "node", "id": 3409971723, "lat": 39.9556825, "lon": -75.1725353}, {"type": "node", "id": 3413417147, "lat": 39.9488031, "lon": -75.1662049}, {"type": "node", "id": 3413417148, "lat": 39.9488892, "lon": -75.1664113}, {"type": "node", "id": 3413417149, "lat": 39.9488304, "lon": -75.1664238}, {"type": "node", "id": 3413417151, "lat": 39.9487736, "lon": -75.1664358}, {"type": "node", "id": 3413417152, "lat": 39.9487464, "lon": -75.1662169}, {"type": "node", "id": 3413417154, "lat": 39.9487647, "lon": -75.1663639}, {"type": "node", "id": 3413742084, "lat": 39.9361462, "lon": -75.1618829}, {"type": "node", "id": 3413742085, "lat": 39.9362324, "lon": -75.1625149}, {"type": "node", "id": 3413742088, "lat": 39.9370997, "lon": -75.1616776}, {"type": "node", "id": 3413742089, "lat": 39.9367215, "lon": -75.1617545}, {"type": "node", "id": 3413742090, "lat": 39.9366857, "lon": -75.1618139}, {"type": "node", "id": 3413742091, "lat": 39.936599, "lon": -75.1618174}, {"type": "node", "id": 3413742092, "lat": 39.9365952, "lon": -75.1617862}, {"type": "node", "id": 3413742093, "lat": 39.9364084, "lon": -75.1618258}, {"type": "node", "id": 3413742596, "lat": 39.9564344, "lon": -75.1385826}, {"type": "node", "id": 3413742597, "lat": 39.9560191, "lon": -75.1387194}, {"type": "node", "id": 3413742598, "lat": 39.9556675, "lon": -75.1368204}, {"type": "node", "id": 3413742599, "lat": 39.9560664, "lon": -75.1367024}, {"type": "node", "id": 3414251603, "lat": 39.9547135, "lon": -75.1647378}, {"type": "node", "id": 3414251604, "lat": 39.9547042, "lon": -75.1646624}, {"type": "node", "id": 3417195707, "lat": 39.94853, "lon": -75.1664874}, {"type": "node", "id": 3417195708, "lat": 39.948557, "lon": -75.1667048}, {"type": "node", "id": 3420122189, "lat": 39.9331737, "lon": -75.1593757}, {"type": "node", "id": 3420122190, "lat": 39.9333043, "lon": -75.1592094}, {"type": "node", "id": 3420122191, "lat": 39.9332941, "lon": -75.1591624}, {"type": "node", "id": 3420122192, "lat": 39.9332694, "lon": -75.1591584}, {"type": "node", "id": 3420122193, "lat": 39.9331326, "lon": -75.1591825},